NO,共通ID,施設・場所名,住所,洪水,崖崩れ、土石流及び地滑り,高潮,地震,津波,大規模な火事,内水氾濫,火山現象,指定避難所との住所同一,緯度,経度,備考
1,E2721100001201,白川公民館,大阪府茨木市鮎川1-8-17,1,,,1,,1,1,,1,34.816489551118,135.59345327513,
2,E2721100002201,東小学校,大阪府茨木市鮎川2-5-23,1,,,1,,1,1,,1,34.820494292236,135.59047216587,
3,E2721100003201,安威小学校,大阪府茨木市安威2-21-23,1,,,1,,1,1,,1,34.84946717262,135.56411505434,
4,E2721100004201,市民総合センター（クリエイトセンター）,大阪府茨木市駅前4-6-16,,,,1,,1,1,,1,34.818781168712,135.56837405225,
5,E2721100005201,養精中学校,大阪府茨木市駅前4-7-60,,,,1,,1,1,,1,34.817849166238,135.56801451469,
6,E2721100006201,穂積小学校,大阪府茨木市下穂積2-6-62,1,,,1,,1,1,,1,34.810312931738,135.55494385381,
7,E2721100007201,太田小学校,大阪府茨木市花園1-21-26,,,,1,,1,1,,1,34.846506813569,135.57413624494,
8,E2721100008201,太田中学校,大阪府茨木市花園1-6-10,,,,1,,1,1,,1,34.843691073558,135.57189504711,
9,E2721100009201,東市民体育館,大阪府茨木市学園町4-18,1,,,1,,1,1,,1,34.818298964612,135.59118074102,
10,E2721100010201,東雲中学校,大阪府茨木市学園南町21-7,1,,,1,,1,1,,1,34.813274324057,135.59089193865,
11,E2721100011201,玉島小学校,大阪府茨木市玉島2-11-23,1,,,1,,1,1,,1,34.800334841775,135.58846244684,
12,E2721100012201,北摂つばさ高等学校,大阪府茨木市玉島台2-15,1,,,1,,1,1,,1,34.800494843609,135.58430917209,
13,E2721100013201,高齢者活動支援センターシニアプラザいばらき,大阪府茨木市桑田町24-21,,,,1,,1,1,,1,34.810534285598,135.586215,
14,E2721100014201,郡小学校,大阪府茨木市郡5-26-23,1,,,1,,1,1,,1,34.834450209995,135.5521321504,
15,E2721100015201,西中学校,大阪府茨木市見付山2-5-4,,,,1,,1,1,,1,34.820549609183,135.55355347649,
16,E2721100016201,男女共生センターローズＷＡＭ,大阪府茨木市元町4-7,1,,,1,,1,1,,1,34.81711116,135.5706853,
17,E2721100018201,彩都西中学校,大阪府茨木市彩都あさぎ4-6-7,,,,1,,1,1,,1,34.849076,135.52854,
18,E2721100019201,彩都西小学校,大阪府茨木市彩都あさぎ5-8-1,,1,,1,,1,1,,1,34.851867441406,135.52812402737,
19,E2721100020201,三島小学校,大阪府茨木市三島町3-13,1,,,1,,1,1,,1,34.831183291617,135.57783110655,
20,E2721100021201,北陵中学校,大阪府茨木市山手台1-23-10,,,,1,,1,1,,1,34.854794785711,135.56024144871,
21,E2721100022201,山手台小学校,大阪府茨木市山手台4-9-4,,1,,1,,1,1,,1,34.863819704543,135.5535713747,
22,E2721100023201,茨木西高等学校,大阪府茨木市紫明園10-68,,,,1,,1,1,,1,34.812016,135.55035,
23,E2721100024201,耳原小学校,大阪府茨木市耳原2-20-55,1,,,1,,1,1,,1,34.838781247532,135.56208098984,
24,E2721100025201,南中学校,大阪府茨木市若園町6-41,1,,,1,,1,1,,1,34.801358449549,135.57943527266,
25,E2721100026201,大池コミュニティセンター,大阪府茨木市舟木町11-35,1,,,1,,1,1,,1,34.813841343316,135.57847677078,
26,E2721100027201,豊川小学校,大阪府茨木市宿久庄5-14-5,,,,1,,1,1,,1,34.840011,135.527259,
27,E2721100029201,春日丘高等学校,大阪府茨木市春日2-1-2,,,,1,,1,1,,1,34.817679963467,135.560585022,
28,E2721100030201,茨木工科高等学校,大阪府茨木市春日5-6-41,,,,1,,1,1,,1,34.82520230571,135.56425766377,
29,E2721100031201,市民体育館,大阪府茨木市小川町2-1,1,,,1,,1,1,,1,34.810602041561,135.56979299473,
30,E2721100032201,庄栄小学校,大阪府茨木市庄2-26-5,1,,,1,,1,1,,1,34.826568966376,135.58139715706,
31,E2721100033201,春日コミュニティセンター,大阪府茨木市上穂積2-13-30,,,,1,,1,1,,1,34.825307801176,135.55984592596,
32,E2721100034201,春日小学校,大阪府茨木市上穂東町5-18,1,,,1,,1,1,,1,34.823424129942,135.56122437551,
33,E2721100035201,郡山小学校,大阪府茨木市新郡山2-30-18,,,,1,,1,1,,1,34.830785,135.542982,
34,E2721100036201,茨木高等学校,大阪府茨木市新庄町12-1,1,,,1,,1,1,,1,34.81334875839,135.57099319461,
35,E2721100037201,中条小学校,大阪府茨木市新中条町7-12,1,,,1,,1,1,,1,34.810098460134,135.56562447064,
36,E2721100038201,葦原小学校,大阪府茨木市新和町13-50,1,,,1,,1,1,,1,34.795576,135.576382,
37,E2721100039201,玉櫛小学校,大阪府茨木市水尾3-1-51,1,,,1,,1,1,,1,34.804375,135.573016,
38,E2721100040201,水尾小学校,大阪府茨木市水尾4-7-16,1,,,1,,1,1,,1,34.805706801398,135.57882041495,
39,E2721100041201,三島中学校,大阪府茨木市西河原1-17-10,1,,,1,,1,1,,1,34.829606834485,135.57645201067,
40,E2721100042201,西河原多世代交流センター,大阪府茨木市西河原2-17-4,,,,1,,1,1,,1,34.832637,135.576158,
41,E2721100043201,三島コミュニティセンター,大阪府茨木市西河原2-7-12,1,,,1,,1,1,,1,34.830694889833,135.57508161834,
42,E2721100044201,西河原小学校,大阪府茨木市西河原北町7-33,,,,1,,1,1,,1,34.834598948919,135.57159702586,
43,E2721100045201,福井市民体育館,大阪府茨木市西福井3-30-45,,,,1,,1,1,,1,34.845656,135.549317,
44,E2721100048201,総持寺いのち・愛・ゆめセンター,大阪府茨木市総持寺2-5-36,1,,,1,,1,1,,1,34.83010087452,135.5852625649,
45,E2721100049201,蔵垣内会館,大阪府茨木市蔵垣内3-11-23,,,,1,,1,1,,1,34.792544621085,135.55608665023,
46,E2721100050201,太田公民館,大阪府茨木市太田3-6-18,1,,,1,,1,1,,1,34.84278638823,135.57847247942,
47,E2721100051201,見山公民館,大阪府茨木市大字下音羽163,,1,,1,,1,1,,1,34.901671795991,135.54020319228,
48,E2721100052201,清溪小学校,大阪府茨木市大字泉原857,,1,,1,,1,1,,1,34.884141265655,135.52161776431,
49,E2721100053201,忍頂寺小学校,大阪府茨木市大字忍頂寺31-2,,1,,1,,1,1,,1,34.895331045723,135.54148539585,
50,E2721100054201,大池小学校,大阪府茨木市大池1-5-8,1,,,1,,1,1,,1,34.812473979073,135.58003142981,
51,E2721100055201,天王中学校,大阪府茨木市沢良宜西3-8-5,,,,1,,1,1,,1,34.795502043932,135.56227039171,
52,E2721100056201,玉櫛コミュニティセンター,大阪府茨木市沢良宜東町5-39,1,,,1,,1,1,,1,34.798889650509,135.57320761056,
53,E2721100057201,沢良宜いのち・愛・ゆめセンター,大阪府茨木市沢良宜浜3-12-19,1,,,1,,1,1,,1,34.794364045152,135.57269562615,
54,E2721100058201,中津小学校,大阪府茨木市中津町10-15,1,,,1,,1,1,,1,34.81642840632,135.58370217963,
55,E2721100059201,春日丘小学校,大阪府茨木市中穂積3-3-43,,,,1,,1,1,,1,34.815628170446,135.55399505735,
56,E2721100060201,天王小学校,大阪府茨木市天王2-13-57,1,,,1,,1,1,,1,34.799946315006,135.56218622983,
57,E2721100061201,南市民体育館,大阪府茨木市島3-8-19,1,,,1,,1,1,,1,34.790429089913,135.57385712266,
58,E2721100062201,茨木公民館,大阪府茨木市東宮町1-19,,,,1,,1,1,,1,34.822564694338,135.57458716997,
59,E2721100063201,東奈良小学校,大阪府茨木市東奈良2-5-36,1,,,1,,1,1,,1,34.80513375338,135.56901275916,
60,E2721100064201,福井多世代交流センター,大阪府茨木市東福井2-23-22,,,,1,,1,1,,1,34.849001022276,135.55553000255,
61,E2721100065201,福井小学校,大阪府茨木市東福井2-4-20,1,1,,1,,1,1,,1,34.845540608433,135.55294973213,
62,E2721100066201,豊川中学校,大阪府茨木市藤の里1-16-8,1,,,1,,1,1,,1,34.840108142139,135.54508328954,
63,E2721100067201,豊川コミュニティセンター,大阪府茨木市藤の里2-16-8,,,,1,,1,1,,1,34.836737668128,135.53713654629,
64,E2721100068201,北中学校,大阪府茨木市南安威3-10-3,,,,1,,1,1,,1,34.842868557081,135.55907468847,
65,E2721100069201,西陵中学校,大阪府茨木市南春日丘1-19-6,,,,1,,1,1,,1,34.812417366526,135.54379508561,
66,E2721100070201,沢池小学校,大阪府茨木市南春日丘3-11-6,,1,,1,,1,1,,1,34.816138581777,135.53883366842,
67,E2721100071201,白川小学校,大阪府茨木市白川1-4-1,1,,,1,,1,1,,1,34.816429662657,135.59805313586,
68,E2721100072201,生涯学習センターきらめき,大阪府茨木市畑田町1-43,1,,,1,,1,1,,1,34.82790801897,135.56554387186,
69,E2721100073201,畑田小学校,大阪府茨木市畑田町3-31,,,,1,,1,1,,1,34.827928204421,135.56424191939,
70,E2721100074201,平田中学校,大阪府茨木市平田1-8-20,1,,,1,,1,1,,1,34.805495245721,135.58739104122,
71,E2721100075201,玉島公民館,大阪府茨木市平田2-25-9,1,,,1,,1,1,,1,34.804457418622,135.59005629964,
72,E2721100077201,茨木小学校,大阪府茨木市片桐町8-40,1,,,1,,1,1,,1,34.820704,135.571398,
73,E2721100078201,豊川いのち・愛・ゆめセンター,大阪府茨木市豊川4-4-28,,1,,1,,1,1,,1,34.832024032706,135.53304159713,
74,E2721100079201,西小学校,大阪府茨木市北春日丘3-12-23,,,,1,,1,1,,1,34.820806,135.535598,
75,E2721100080201,東中学校,大阪府茨木市末広町7-4,1,,,1,,1,1,,1,34.819661,135.579363,
76,E2722200001201,上印公園,大阪府羽曳野市はびきの4-298-2,1,1,,1,,,,,,34.55285,135.592238,
77,E2722200002201,埴生南小学校,大阪府羽曳野市はびきの6-6-1,1,1,,1,,,,,1,34.552058,135.585104,
78,E2722200003201,中央スポーツ公園,大阪府羽曳野市伊賀5-6-37,1,1,,1,,,,,,34.561097,135.582134,
79,E2722200004201,はびきの埴生学園,大阪府羽曳野市伊賀5-8-1,1,1,,1,,,,,1,34.55954,135.58339,
80,E2722200005201,伊賀公園,大阪府羽曳野市伊賀6-150,1,1,,1,,,,,,34.562252,135.582734,
81,E2722200007201,羽曳が丘北公園,大阪府羽曳野市羽曳が丘1-201-1,1,1,,1,,,,,,34.546146,135.593911,
82,E2722200006201,羽曳が丘１０丁目公園,大阪府羽曳野市羽曳が丘10-400-195,1,1,,1,,,,,,34.534847,135.589227,
83,E2722200008201,羽曳が丘東公園,大阪府羽曳野市羽曳が丘3-201-1,1,1,,1,,,,,,34.543632,135.59629,
84,E2722200009201,羽曳が丘中公園,大阪府羽曳野市羽曳が丘3-202,1,1,,1,,,,,,34.542132,135.594588,
85,E2722200010201,羽曳が丘小学校,大阪府羽曳野市羽曳が丘6-8-1,1,1,,1,,,,,1,34.540455,135.592778,
86,E2722200011201,羽曳が丘南公園,大阪府羽曳野市羽曳が丘7-201,1,1,,1,,,,,,34.537718,135.595233,
87,E2722200012201,健康ふれあいの郷グラウンド・ゴルフ場,大阪府羽曳野市羽曳が丘9-35-1,1,1,,1,,,,,,34.533535,135.590792,
88,E2722200013201,羽曳が丘西南公園,大阪府羽曳野市羽曳が丘西1-2-4,1,1,,1,,,,,,34.537468,135.590838,
89,E2722200014201,羽曳が丘西北公園,大阪府羽曳野市羽曳が丘西2-6-1,1,1,,1,,,,,,34.543033,135.58893,
90,E2722200015201,羽曳が丘西中公園,大阪府羽曳野市羽曳が丘西3-4-5,1,1,,1,,,,,,34.540076,135.58826,
91,E2722200016201,羽曳が丘西西公園,大阪府羽曳野市羽曳が丘西4-3-14,1,,,1,,,,,,34.54058,135.58514,
92,E2722200017201,羽曳が丘ネオポリス公園,大阪府羽曳野市羽曳が丘西5-5-28,1,1,,1,,,,,,34.543943,135.5827,
93,E2722200018201,学園前１丁目公園,大阪府羽曳野市学園前1-320-80,1,1,,1,,,,,,34.547389,135.588399,
94,E2722200019201,樫山緑地,大阪府羽曳野市樫山357,,1,,1,,,,,,34.557933,135.576817,
95,E2722200021201,駒ヶ谷テニスコート,大阪府羽曳野市駒ケ谷1408-1,1,1,,1,,,,,,34.54894,135.627001,
96,E2722200022201,駒ケ谷古墳公園,大阪府羽曳野市駒ケ谷2-10,1,1,,1,,,,,,34.5535,135.625094,
97,E2722200023201,駒ケ谷小学校,大阪府羽曳野市駒ケ谷344-1,1,1,,1,,,,,1,34.541984,135.626789,
98,E2722200024201,グレープヒルスポーツ公園,大阪府羽曳野市駒ケ谷850,1,1,,1,,,,,,34.546171,135.63292,
99,E2722200020201,府営石川河川公園駒ヶ谷地区,大阪府羽曳野市駒ヶ谷140,1,1,,1,,,,,,34.546127,135.619389,
100,E2722200025201,丹比小学校,大阪府羽曳野市郡戸206,1,1,,1,,,,,1,34.551194,135.57485,
101,E2722200026201,郡戸公園,大阪府羽曳野市郡戸300-123,,1,,1,,,,,,34.553748,135.578403,
102,E2722200027201,しなづせせらぎの道,大阪府羽曳野市恵我之荘1-269-1,,1,,1,,,,,,34.572327,135.578944,
103,E2722200028201,高鷲小学校第２グラウンド（地域グラウンド）,大阪府羽曳野市恵我之荘2-70-1,,1,,1,,,,,,34.575632,135.578071,
104,E2722200029201,羽曳野市立生活文化情報センター　ＬＩＣはびきの,大阪府羽曳野市軽里1-1-1,1,1,,1,,,,,1,34.553768,135.597738,
105,E2722200030201,峰塚公園,大阪府羽曳野市軽里2-85-1,1,1,,1,,,,,,34.551879,135.596264,
106,E2722200031201,古市小学校,大阪府羽曳野市古市1-2-5,1,1,,1,,,,,1,34.554095,135.610417,
107,E2722200032201,石川スポーツ公園,大阪府羽曳野市古市1956,,1,,1,,,,,,34.551289,135.615235,
108,E2722200033201,古市南小学校,大阪府羽曳野市古市5-14-38,1,1,,1,,,,,1,34.547678,135.611007,
109,E2722200034201,青少年児童センター,大阪府羽曳野市向野3-1-33,1,1,,1,,,,,1,34.560733,135.579866,
110,E2722200035201,向野公園,大阪府羽曳野市向野3-265-1,,1,,1,,,,,,34.560807,135.575429,
111,E2722200036201,西浦東小学校,大阪府羽曳野市広瀬75-3,1,1,,1,,,,,1,34.531452,135.612853,
112,E2722200037201,高鷲南小学校,大阪府羽曳野市高鷲2-12-1,1,1,,1,,,,,1,34.566469,135.585399,
113,E2722200038201,高鷲南中学校,大阪府羽曳野市高鷲2-2-1,1,1,,1,,,,,1,34.568365,135.584219,
114,E2722200039201,府立環境農林水産総合研究所,大阪府羽曳野市尺度442,1,1,,1,,,,,,34.534991,135.598754,
115,E2722200040201,道の駅「しらとりの郷・羽曳野」,大阪府羽曳野市埴生野975-3,1,1,,1,,,,,,34.533041,135.587687,
116,E2722200041201,翠鳥園遺跡公園,大阪府羽曳野市翠鳥園362,1,1,,1,,,,,,34.554455,135.602571,
117,E2722200042201,西浦小学校,大阪府羽曳野市西浦1050,1,1,,1,,,,,1,34.537129,135.603479,
118,E2722200043201,府立西浦支援学校,大阪府羽曳野市西浦2-1797,1,1,,1,,,,,1,34.544517,135.605619,
119,E2722200044201,峰塚中学校,大阪府羽曳野市西浦6-48,1,1,,1,,,,,1,34.549868,135.596953,
120,E2722200045201,府立懐風館高校,大阪府羽曳野市大黒776,1,1,,1,,,,,1,34.539447,135.622426,
121,E2722200046201,高鷲小学校,大阪府羽曳野市島泉2-1-19,1,1,,1,,,,,1,34.574128,135.577949,
122,E2722200047201,高鷲北小学校,大阪府羽曳野市島泉4-3-33,1,1,,1,,,,,1,34.578613,135.578317,
123,E2722200048201,羽曳野市立陵南の森総合センター,大阪府羽曳野市島泉8-8-1,1,1,,1,,,,,1,34.5755099413828,135.584689704761,
124,E2722200049201,高鷲中学校,大阪府羽曳野市島泉9-15-4,1,1,,1,,,,,1,34.573262,135.582596,
125,E2722200050201,桃山台１号公園,大阪府羽曳野市桃山台1-324-112,1,,,1,,,,,,34.550626,135.586617,
126,E2722200051201,桃山台２号公園,大阪府羽曳野市桃山台3-130-48,1,1,,1,,,,,,34.550646,135.582933,
127,E2722200052201,河原城中学校,大阪府羽曳野市桃山台4-123,1,1,,1,,,,,1,34.549652,135.580165,
128,E2722200053201,社会福祉法人大阪福祉事業財団児童養護施設高鷲学園,大阪府羽曳野市南恵我之荘2-6-20,1,1,,1,,,,,,34.570421,135.574754,
129,E2722200054201,東除公園,大阪府羽曳野市南恵我之荘3-14-1,,1,,1,,,,,,34.5682,135.576498,
130,E2722200055201,羽曳野市立総合スポーツセンター　はびきのコロセアム,大阪府羽曳野市南恵我之荘4-237-4,1,1,,1,,,,,1,34.563178,135.573354,
131,E2722200056201,新池さくら公園,大阪府羽曳野市南恵我之荘5-859,1,1,,1,,,,,,34.566206,135.571332,
132,E2722200057201,恵我之荘小学校,大阪府羽曳野市南恵我之荘7-8-35,1,1,,1,,,,,1,34.572276,135.570606,
133,E2722200058201,白鳥小学校,大阪府羽曳野市白鳥3-8-17,1,1,,1,,,,,1,34.555866,135.603626,
134,E2722200059201,野々上２丁目緑地,大阪府羽曳野市野々上2-646,1,1,,1,,,,,,34.560076,135.593288,
135,E2722200060201,埴生野公園,大阪府羽曳野市野々上5-462-9,1,1,,1,,,,,,34.562581,135.590659,
136,E2722200061201,羽曳野市民会館,大阪府羽曳野市誉田1-4-4,1,1,,,,,,,1,34.555349,135.610417,
137,E2722200062201,誉田八幡宮,大阪府羽曳野市誉田3-2-8,,1,,1,,,,,,34.558835,135.610558,
138,E2722200063201,誉田中学校,大阪府羽曳野市誉田6-5-37,1,1,,1,,,,,1,34.561555,135.61241,
139,E2722200064201,誉田中学校茶山グラウンド,大阪府羽曳野市誉田6-612,,1,,1,,,,,,34.563618,135.612115,
140,E2721600001201,西中学校,大阪府河内長野市下里町257-3,1,1,,1,,1,1,,1,34.436414188882,135.54061762968,
141,E2721600002201,天野小学校,大阪府河内長野市下里町365,1,1,,1,,1,1,,1,34.437684853322,135.53874997479,
142,E2721600003201,加賀田小学校,大阪府河内長野市加賀田568-1,1,1,,1,,1,1,,1,34.42454729381,135.56382933136,
143,E2721600004201,加賀田公民館,大阪府河内長野市加賀田617-4,,1,,1,,1,1,,1,34.42313240706,135.564153837,
144,E2721600005201,天見公民館,大阪府河内長野市岩瀬1244,1,1,,1,,1,1,,1,34.412429906966,135.59197993966,
145,E2721600006201,奥河内くろまろの郷,大阪府河内長野市高向1218-1,1,1,,1,,1,1,,,34.43628128514,135.5512861679,
146,E2721600007201,高向公民館,大阪府河内長野市高向515-3,1,1,,1,,1,1,,1,34.43844054527,135.55105129384,
147,E2721600008201,高向小学校,大阪府河内長野市高向86,1,1,,1,,1,1,,1,34.434047132656,135.54579523722,
148,E2721600009201,三日市市民ホール,大阪府河内長野市三日市町32-1,1,1,,1,,1,1,,1,34.436817122362,135.57016466237,
149,E2721600010201,千代田中学校,大阪府河内長野市市町1367-1,1,1,,1,,1,1,,1,34.467840864083,135.57081293415,
150,E2721600011201,川上公民館,大阪府河内長野市寺元501,,,,1,,1,1,,1,34.43546837411,135.59846932519,
151,E2721600012201,汐の宮こども園,大阪府河内長野市汐の宮町8-39,1,1,,1,,1,1,,1,34.46901583163,135.57978190026,
152,E2721600013201,汐の宮公園,大阪府河内長野市汐の宮町内,1,1,,1,,1,1,,,34.46733034303,135.58144783491,
153,E2721600014201,あやたホール,大阪府河内長野市小山田町1824-4,1,1,,1,,1,1,,1,34.446174140633,135.54734393196,
154,E2721600016201,小山田小学校,大阪府河内長野市小山田町590-1,1,1,,1,,1,1,,1,34.457012083734,135.55666927518,
155,E2721600017201,寺ケ池公園,大阪府河内長野市小山田町674-5,1,1,,1,,1,1,,,34.458512596132,135.55831088651,
156,E2721600018201,キックス,大阪府河内長野市昭栄町7-1,1,1,,1,,1,1,,1,34.454472921399,135.56045467053,
157,E2721600019201,野作第１公園,大阪府河内長野市昭栄町地内,1,1,,1,,1,1,,,34.453194231698,135.55908357615,
158,E2721600020201,松ケ丘公園,大阪府河内長野市松ケ丘西町内,1,1,,1,,1,1,,,34.47317251094,135.5587080669,
159,E2721600021201,ゆうゆうスペース,大阪府河内長野市上田町200-1,1,1,,1,,1,1,,1,34.440669749848,135.56849348261,
160,E2721600022201,三日市小学校,大阪府河内長野市上田町380,1,1,,1,,1,1,,1,34.438665144793,135.56552548509,
161,E2721600024201,川上小学校,大阪府河内長野市清見台4-18-1,1,1,,1,,1,1,,1,34.436511370413,135.58619660923,
162,E2721600025201,くすのかホール,大阪府河内長野市清見台4-18-2,1,1,,1,,1,1,,1,34.436855741204,135.58650739662,
163,E2721600026201,清見台第５公園,大阪府河内長野市清見台5,1,1,,1,,1,1,,,34.43491458567,135.57815944667,
164,E2721600023201,清見台第１公園,大阪府河内長野市清見台２地内,1,1,,1,,1,1,,,34.436542751239,135.58109914774,
165,E2721600027201,ラブリーホール,大阪府河内長野市西代町12-46,1,1,,1,,1,1,,1,34.453051395787,135.56659408604,
166,E2721600028201,長野小学校,大阪府河内長野市西代町14-1,1,1,,1,,1,1,,1,34.453998836747,135.56472093201,
167,E2721600029201,加賀田中学校,大阪府河内長野市石仏570,1,1,,1,,1,1,,1,34.420565,135.573934,
168,E2721600030201,石仏小学校,大阪府河内長野市石仏662,1,1,,1,,1,1,,1,34.422128798149,135.57371606896,
169,E2721600031201,市民総合体育館,大阪府河内長野市大師町25-1,1,1,,1,,1,1,,1,34.445222484029,135.57172917493,
170,E2721600032201,福祉センター　錦渓苑,大阪府河内長野市大師町26-1,1,1,,1,,1,1,,1,34.446122676995,135.57194276596,
171,E2721600033201,滝畑ふるさと文化財の森センター,大阪府河内長野市滝畑483-3,1,1,,1,,1,1,,1,34.387727884689,135.52594551019,
172,E2721600034201,ノバティホール,大阪府河内長野市長野町5-1-303,1,1,,1,,1,1,,1,34.450512411736,135.57195405912,
173,E2721600035201,天見小学校,大阪府河内長野市天見2370-1,1,1,,1,,1,1,,1,34.398812583287,135.59435112638,
174,E2721600036201,天野公民館,大阪府河内長野市天野町1520-5,1,1,,1,,1,1,,1,34.437981898007,135.53541095671,
175,E2721600037201,南花台小学校跡地,大阪府河内長野市南花台2-11-1,1,1,,1,,1,1,,1,34.430326183627,135.56023818658,
176,E2721600038201,錦秀会看護専門学校,大阪府河内長野市南花台4-24-1,1,1,,1,,1,1,,1,34.423759186346,135.55388756147,
177,E2721600039201,南花台小学校・南花台中学校,大阪府河内長野市南花台6-6-1,1,1,,1,,1,1,,1,34.434068792604,135.55533595434,
178,E2721600040201,南花台公民館,大阪府河内長野市南花台8-4-1,1,1,,1,,1,1,,1,34.434481226294,135.56221849841,
179,E2721600041201,楠小学校,大阪府河内長野市楠町東1011,1,1,,1,,1,1,,1,34.469993496226,135.56219620786,
180,E2721600042201,東中学校,大阪府河内長野市日東町26-1,1,1,,1,,1,1,,1,34.438467873496,135.57833614273,
181,E2721600043201,みのでホール,大阪府河内長野市日野980,1,1,,1,,1,1,,1,34.420675313093,135.54023410016,
182,E2721600045201,美加の台小学校,大阪府河内長野市美加の台3-25-1,1,1,,1,,1,1,,1,34.425976538626,135.58758828776,
183,E2721600047201,美加の台中学校,大阪府河内長野市美加の台7-2-1,1,1,,1,,1,1,,1,34.42427294277,135.58704648154,
184,E2721600044201,美加の台第１公園,大阪府河内長野市美加の台２地内,1,1,,1,,1,1,,,34.43030865204,135.58143710608,
185,E2721600046201,美加の台第２公園,大阪府河内長野市美加の台７地内,1,1,,1,,1,1,,,34.422724458069,135.58481132502,
186,E2721600048201,長野中学校,大阪府河内長野市本多町3-1,1,1,,1,,1,1,,1,34.455082561597,135.5673655901,
187,E2721600049201,千代田公民館,大阪府河内長野市木戸西町1-2-9,1,1,,1,,1,1,,1,34.466936348231,135.56699540495,
188,E2721600050201,千代田小学校,大阪府河内長野市木戸町649,1,1,,1,,1,1,,1,34.469135519767,135.5715070286,
189,E2721600051201,保健センター,大阪府河内長野市木戸東町2-1,1,1,,1,,1,1,,1,34.472166,135.572746,
190,E2738200001201,かなん桜小学校運動場,大阪府河南町さくら坂1-1-1,1,1,,1,,1,,,1,34.475313789128,135.6491614932,
191,E2738200002201,さくら坂南公園,大阪府河南町さくら坂2-3-1,1,1,,1,,1,,,,34.47574676,135.64574063,
192,E2738200003201,さくら坂北公園,大阪府河南町さくら坂3-1-1,1,1,,1,,1,,,,34.48014889,135.64610223,
193,E2738200005201,さくら坂中央公園,大阪府河南町さくら坂4-14-2,1,1,,1,,1,,,,34.477490008793,135.64656034208,
194,E2738200006201,総合運動場,大阪府河南町さくら坂5-1,1,1,,1,,1,,,,34.4811529074,135.6468616056,
195,E2738200007201,白木山公園,大阪府河南町さくら坂5-5-3,1,1,,1,,1,,,,34.48247766,135.64263439,
196,E2738200008201,さくら坂南中央公園,大阪府河南町さくら坂南6-5,1,1,,1,,1,,,,34.473858424522,135.6440035169,
197,E2738200010201,石川公園,大阪府河南町一須賀19-1,1,1,,1,,1,,,,34.506081076914,135.62524014875,
198,E2738200012201,石川こども園園庭,大阪府河南町一須賀76-1,1,1,,1,,1,,,1,34.508098850039,135.62393223607,
199,E2738200019201,中村こども園園庭,大阪府河南町神山19,1,1,,1,,1,,,1,34.478837752638,135.62671267591,
200,E2738200024201,大ヶ塚公園,大阪府河南町大ヶ塚71-1,1,1,,1,,1,,,,34.505087173697,135.62563283845,
201,E2738200025201,大宝西公園,大阪府河南町大宝1-18-1,1,1,,1,,1,,,,34.502528675159,135.63165095903,
202,E2738200027201,大宝中央公園,大阪府河南町大宝1-29-2,1,1,,1,,1,,,,34.502313555324,135.63492866388,
203,E2738200028201,ネオポリス公園,大阪府河南町大宝2-8-1,1,1,,1,,1,,,,34.50536437,135.6344653,
204,E2738200029201,大宝北公園,大阪府河南町大宝3-11-1,1,1,,1,,1,,,,34.50462177,135.63842886,
205,E2738200030201,近つ飛鳥小学校運動場,大阪府河南町大宝3-4-1,1,1,,1,,1,,,1,34.503403032015,135.63902086137,
206,E2738200032201,大宝３丁目東公園,大阪府河南町大宝3-41-53,1,1,,1,,1,,,,34.502896771548,135.6401231003,
207,E2738200033201,大宝東公園,大阪府河南町大宝4-23-1,1,1,,1,,1,,,,34.5010180602704,135.63864440893,
208,E2738200034201,大宝南公園,大阪府河南町大宝4-7-9,1,1,,1,,1,,,,34.50106701,135.63438081,
209,E2738200035201,スーパーセンターオークワ河南店駐車場,大阪府河南町中415,1,1,,1,,1,,,,34.473176404894,135.63056792144,
210,E2738200036201,なかむら公園,大阪府河南町中73-1,1,1,,1,,1,,,,34.4811398888,135.627522917,
211,E2738200038201,大阪芸術大学グラウンド,大阪府河南町東山469,1,1,,1,,1,,,1,34.50939283051,135.6314149706,
212,E2738200042201,中学校運動場,大阪府河南町白木1285,1,1,,1,,1,,,1,34.490732683865,135.62951660875,
213,E2738200049201,鈴美台公園,大阪府河南町鈴美台1-2-1,1,1,,1,,1,,,,34.484242637847,135.6475745996,
214,E2738200050201,鈴美台南公園,大阪府河南町鈴美台1-8-3,1,1,,1,,1,,,,34.4824558703262,135.648104394243,
215,E2738200051201,鈴美台西公園,大阪府河南町鈴美台3-1-6,1,1,,1,,1,,,,34.48382245,135.64166967,
216,E2720800001201,ヴァンテージ二色,大阪府貝塚市浦田76-1,,,,,1,,,,,34.432829589367,135.34436863683,
217,E2720800002202,第一中学校体育館,大阪府貝塚市加神1-5-1,1,,,1,,1,1,,1,34.441607,135.357125,
218,E2720800002201,第一中学校（屋外運動場）,大阪府貝塚市加神1-5-1,,,,1,,1,,,1,34.440862,135.35732,
219,E2720800050201,ひと・ふれあいセンター,大阪府貝塚市海塚2-28-49,,,,1,,1,1,,1,34.443636,135.362478,
220,E2720800007201,第四中学校（屋外運動場）,大阪府貝塚市橋本1385,,,,1,,1,,,1,34.419151,135.363972,
221,E2720800007202,第四中学校体育館,大阪府貝塚市橋本1385,1,,,1,,1,1,,1,34.41943,135.363115,
222,E2720800008201,府立貝塚南高等学校（屋外運動場）,大阪府貝塚市橋本620,,,,1,,1,,,1,34.42192,135.366577,
223,E2720800008202,府立貝塚南高等学校体育館,大阪府貝塚市橋本620,,,,1,,1,,,1,34.421873,135.367335,
224,E2720800009201,かいづか　いぶき温泉体育館,大阪府貝塚市蕎原2114,1,1,,1,,1,1,,1,34.370477,135.413552,
225,E2720800010202,木島小学校体育館,大阪府貝塚市三ツ松1048,1,1,,1,,1,1,,1,34.412049,135.381636,
226,E2720800010201,木島小学校（屋外運動場）,大阪府貝塚市三ツ松1048,,,,1,,1,,,1,34.411708,135.381128,
227,E2720800011202,永寿小学校体育館,大阪府貝塚市三ツ松2020,1,1,,1,,1,1,,1,34.404367,135.378659,
228,E2720800011201,永寿小学校（屋外運動場）,大阪府貝塚市三ツ松2020,,,,1,,1,,,1,34.404844,135.378915,
229,E2720800012202,東小学校体育館,大阪府貝塚市小瀬1-25-5,1,,,1,,1,1,,1,34.445565,135.367357,
230,E2720800012201,東小学校（屋外運動場）,大阪府貝塚市小瀬1-25-5,,,,1,,1,,,1,34.446401,135.368513,
231,E2720800013201,水間公園,大阪府貝塚市水間641-1,,,,1,,1,,,,34.397792,135.383687,
232,E2720800014201,ユニライフ貝塚プラージュ,大阪府貝塚市西町20-20,,,,,1,,,,,34.449316907874,135.35494914397,
233,E2720800015202,南小学校体育館,大阪府貝塚市地蔵堂286,1,,,1,,1,1,,1,34.428117,135.356869,
234,E2720800015201,南小学校（屋外運動場）,大阪府貝塚市地蔵堂286,,,,1,,1,,,1,34.427667,135.356387,
235,E2720800016201,北小学校（屋外運動場）,大阪府貝塚市中町4-1,,,,1,,1,,,1,34.449121,135.357606,
236,E2720800016203,北小学校校舎,大阪府貝塚市中町4-1,,,1,,1,,,,1,34.449380077337,135.3569843508,
237,E2720800016202,北小学校体育館,大阪府貝塚市中町4-1,1,,,1,,1,1,,1,34.449082,135.356787,
238,E2720800017201,津田小学校（屋外運動場）,大阪府貝塚市津田南町1-1,,,,1,,1,,,1,34.452192,135.362626,
239,E2720800017202,津田小学校体育館,大阪府貝塚市津田南町1-1,1,,,1,,1,1,,1,34.451663,135.362312,
240,E2720800017203,津田小学校校舎,大阪府貝塚市津田南町1-1,,,1,,1,,,,1,34.45218514892,135.3621313488,
241,E2720800018201,やすらぎ老人福祉センター,大阪府貝塚市東79-1,,,,1,,1,1,,1,34.44449,135.363227,
242,E2720800019201,青少年運動広場,大阪府貝塚市東山1-4-1,,,,1,,1,,,,34.417068,135.386148,
243,E2720800020202,東山小学校体育館,大阪府貝塚市東山5-11-1,1,1,,1,,1,1,,1,34.411573,135.390669,
244,E2720800020201,東山小学校（屋外運動場）,大阪府貝塚市東山5-11-1,,,,1,,1,,,1,34.411402,135.389868,
245,E2720800021201,山手地区公民館,大阪府貝塚市東山7-10-1,,,,1,,1,1,,1,34.407524,135.387676,
246,E2720800022202,第三中学校体育館,大阪府貝塚市東山7-4-1,1,1,,1,,1,1,,1,34.408621,135.389684,
247,E2720800022201,第三中学校（屋外運動場）,大阪府貝塚市東山7-4-1,,,,1,,1,,,1,34.409226,135.389191,
248,E2720800023202,貝塚合同宿舎４号棟,大阪府貝塚市二色1-2,,,,,1,,,,,34.447382912739,135.34624929182,
249,E2720800023201,貝塚合同宿舎５号棟,大阪府貝塚市二色1-2,,,,,1,,,,,34.446939121277,135.34561038977,
250,E2720800024203,二色学園校舎,大阪府貝塚市二色1-3-1,,,1,,1,,,,1,34.448593860172,135.34419949413,
251,E2720800024201,二色学園（屋外運動場）,大阪府貝塚市二色1-3-1,,,,1,,1,,,1,34.448176,135.344501,
252,E2720800024202,二色学園体育館,大阪府貝塚市二色1-3-1,,,,1,,1,1,,1,34.448662,135.343322,
253,E2720800025203,エルベコート二色の浜３棟,大阪府貝塚市二色2-12,,,,,1,,,,,34.447796885858,135.34234313718,
254,E2720800025205,エルベコート二色の浜１棟,大阪府貝塚市二色2-12,,,,,1,,,,,34.448258323214,135.34192331778,
255,E2720800025204,エルベコート二色の浜２棟,大阪府貝塚市二色2-12,,,,,1,,,,,34.448021787663,135.34213843114,
256,E2720800025201,エルベコート二色の浜５棟,大阪府貝塚市二色2-12,,,,,1,,,,,34.448442791265,135.3427426791,
257,E2720800025202,エルベコート二色の浜４棟,大阪府貝塚市二色2-12,,,,,1,,,,,34.448551260086,135.34241174813,
258,E2720800026202,二色学園（旧第五中学校）体育館,大阪府貝塚市二色2-3-1,,,,1,,1,1,,1,34.446177,135.343137,
259,E2720800026203,二色学園（旧第五中学校）校舎,大阪府貝塚市二色2-3-1,,,1,,1,,,,1,34.44581552045,135.34308991776,
260,E2720800026201,二色学園（旧第五中学校）（屋外運動場）,大阪府貝塚市二色2-3-1,,,,1,,1,,,1,34.445011,135.343465,
261,E2720800027201,アジュール二色の浜３号棟,大阪府貝塚市二色2-4,,,,,1,,,,,34.44568,135.344359,
262,E2720800027202,アジュール二色の浜２号棟,大阪府貝塚市二色2-4,,,,,1,,,,,34.445331,135.344674,
263,E2720800027203,アジュール二色の浜１号棟,大阪府貝塚市二色2-4,,,,,1,,,,,34.445046,135.344938,
264,E2720800028205,コスタ・ミラにしきのはま２番館,大阪府貝塚市二色2-5,,,,,1,,,,,34.446587121311,135.34463798161,
265,E2720800028202,コスタ・ミラにしきのはま４番館,大阪府貝塚市二色2-5,,,,,1,,,,,34.445606892542,135.34543052068,
266,E2720800028203,コスタ・ミラにしきのはま３番館－２,大阪府貝塚市二色2-5,,,,,1,,,,,34.446034367119,135.34556350481,
267,E2720800028204,コスタ・ミラにしきのはま３番館－１,大阪府貝塚市二色2-5,,,,,1,,,,,34.446383847952,135.34508269167,
268,E2720800028201,コスタ・ミラにしきのはま５番館,大阪府貝塚市二色2-5,,,,,1,,,,,34.446183184264,135.34444770554,
269,E2720800029201,コスタ・ミラにしきのはま１番館,大阪府貝塚市二色2-6,,,,,1,,,,,34.447368756697,135.34384318942,
270,E2720800030201,浜手地区公民館,大阪府貝塚市二色2-7-2,,,,1,,1,1,,1,34.4468,135.3436,
271,E2720800031201,市民ふれあい運動広場,大阪府貝塚市二色南町4-1,,,,1,,1,,,,34.452497,135.34038,
272,E2720800033201,府立貝塚高等学校（屋外運動場）,大阪府貝塚市畠中1-1-1,,,,1,,1,,,1,34.439817,135.359321,
273,E2720800033202,府立貝塚高等学校体育館,大阪府貝塚市畠中1-1-1,,,,1,,1,,,1,34.440618,135.359187,
274,E2720800034201,総合体育館,大阪府貝塚市畠中1-13-1,1,,,1,,1,1,,1,34.437812,135.36,
275,E2720800035201,第二中学校（屋外運動場）,大阪府貝塚市福田100,,,,1,,1,,,1,34.443041,135.366428,
276,E2720800035202,第二中学校体育館,大阪府貝塚市福田100,1,,,1,,1,1,,1,34.442678,135.365953,
277,E2720800036201,福田公園,大阪府貝塚市福田175-12,,,,1,,1,,,,34.438723,135.366919,
278,E2720800037201,青少年人権教育交流館,大阪府貝塚市福田91,,,,1,,1,1,,1,34.444,135.364366,
279,E2720800038201,アステージ貝塚北町,大阪府貝塚市北町6-29,,,,,1,,,,,34.448947178864,135.35901730412,
280,E2720800039201,パレス貝塚,大阪府貝塚市堀3-12-1,,,,,1,,,,,34.451489596399,135.35903822516,
281,E2720800040201,ユニライフ貝塚Ⅱ,大阪府貝塚市堀3-27-8,,,,,1,,,,,34.453272701464,135.35719286569,
282,E2720800041201,中央小学校（屋外運動場）,大阪府貝塚市麻生中854,,,,1,,1,,,1,34.432324,135.372243,
283,E2720800041202,中央小学校体育館,大阪府貝塚市麻生中854,1,,,1,,1,1,,1,34.4319,135.372358,
284,E2720800042202,葛城小学校体育館,大阪府貝塚市木積2032,1,1,,1,,1,1,,1,34.397945,135.392307,
285,E2720800042201,葛城小学校（屋外運動場）,大阪府貝塚市木積2032,,,,1,,1,,,1,34.398008,135.391877,
286,E2720800043201,イーズセンチュリーセントラルオフィスビル,大阪府貝塚市脇浜1-16-9,,,,,1,,,,,34.439552974554,135.34936939954,
287,E2720800044201,西小学校（屋外運動場）,大阪府貝塚市脇浜4-6-1,,,,1,,1,,,1,34.439956,135.347994,
288,E2720800044203,西小学校校舎,大阪府貝塚市脇浜4-6-1,,,1,,1,,,,1,34.440203351335,135.34761523361,
289,E2720800044202,西小学校体育館,大阪府貝塚市脇浜4-6-1,1,,,1,,1,1,,1,34.439708,135.347432,
290,E2720800047201,市営沢団地住宅,大阪府貝塚市澤1090,,,,,1,,,,,34.438517,135.342094,
291,E2720800048201,グレイスコートたちばな,大阪府貝塚市澤157-3,,,,,1,,,,,34.430567,135.341084,
292,E2720800049201,アーク八品,大阪府貝塚市澤485-1,,,,,1,,,,,34.43403,135.339765,
293,E2720200003202,大芝小学校（運動場）,大阪府岸和田市磯上町2-4-1,,1,,1,,1,,,1,34.48601975745,135.38817027372,
294,E2720200003201,大芝小学校　（３階廊下）,大阪府岸和田市磯上町2-4-1,,,1,,1,,,,1,34.485666020809,135.38825610442,
295,E2720200007201,山直南小学校（運動場）,大阪府岸和田市稲葉町20,1,1,1,1,1,1,1,,1,34.433606736331,135.43690939794,
296,E2720200009201,桜台中学校（運動場）,大阪府岸和田市下松町1225,1,1,1,1,1,1,1,,1,34.451421801882,135.40634596363,
297,E2720200125201,常盤小学校（運動場）,大阪府岸和田市下松町4-6-1,1,1,1,1,1,1,1,,1,34.454598,135.397972,
298,E2720200012201,八木北小学校（運動場）,大阪府岸和田市下池田町3-6-4,1,1,1,1,1,1,1,,1,34.470819141982,135.40636406406,
299,E2720200014201,野村中学校（３階廊下）,大阪府岸和田市下野町2-13-18,,,1,,1,,,,1,34.472208956472,135.37735979301,
300,E2720200014202,野村中学校（運動場）,大阪府岸和田市下野町2-13-18,1,1,,1,,1,1,,1,34.472746280065,135.37680189352,
301,E2720200017201,東葛城小学校（運動場）,大阪府岸和田市河合町1833-4,1,,1,1,1,1,1,,1,34.406906693317,135.41611184736,
302,E2720200019201,大阪府立岸和田高校　（３階廊下及び４階廊下）,大阪府岸和田市岸城町10-1,,,1,,1,,,,1,34.458241621667,135.37157887693,
303,E2720200020201,千亀利公園,大阪府岸和田市岸城町1823-1,1,1,,1,,1,1,,,34.459913621329,135.36996913067,
304,E2720200022201,岸和田市貝塚市クリーンセンター（４階作業場（ゴミプラットホーム））,大阪府岸和田市岸之浦町1-2,,,1,,1,,,,,34.476551263622,135.35477144968,
305,E2720200024201,大宮小学校（運動場）,大阪府岸和田市宮前町7-1,1,1,1,1,1,1,1,,1,34.469002384215,135.38800549544,
306,E2720200025201,浪切ホール（２階ラウンジ及び２階廊下、３階屋根部屋及び３階機械置場並びに４階廊下）,大阪府岸和田市港緑町1-1,,,1,,1,,,,1,34.466216910907,135.36987726021,
307,E2720200027201,城北小学校（運動場）,大阪府岸和田市荒木町2-1-1,,1,1,1,1,1,,,1,34.476628978183,135.39680382418,
308,E2720200030201,新条小学校（運動場）,大阪府岸和田市荒木町2-4-33,,1,1,1,1,1,,,1,34.476358251748,135.39942667334,
309,E2720200031201,北公園,大阪府岸和田市荒木町2-40-1,,1,1,1,1,1,,,,34.476182811134,135.39768154271,
310,E2720200033201,市立公民館・中央地区公民館（３階会議室及び３階ロビー並びに４階多目的室及び４階ロビー）,大阪府岸和田市堺町1-1,,,1,,1,,,,1,34.461679114748,135.3730013131,
311,E2720200034201,中央小学校（運動場）,大阪府岸和田市堺町1-10,1,1,,1,,1,1,,1,34.461889022529,135.3720251069,
312,E2720200035201,きしわだ自然資料館（屋上）,大阪府岸和田市堺町6-5,,,1,,1,,,,,34.462410270717,135.37063123874,
313,E2720200040201,蜻蛉池公園,大阪府岸和田市三ケ山町701,1,1,1,1,1,1,1,,,34.433158535691,135.41866731754,
314,E2720200041201,山直中学校（運動場）,大阪府岸和田市三田町1030,,1,1,1,1,1,,,1,34.458258316784,135.42764065228,
315,E2720200042201,城東小学校（運動場）,大阪府岸和田市三田町146,1,1,1,1,1,1,1,,1,34.460890821544,135.4305545545,
316,E2720200045202,浜小学校（運動場）,大阪府岸和田市紙屋町12-20,1,1,,1,,1,1,,1,34.462300669179,135.36710293721,
317,E2720200045201,浜小学校（３階教室及び３階廊下）,大阪府岸和田市紙屋町12-20,,,1,,1,,,,1,34.462669985158,135.36652894449,
318,E2720200046201,北中学校（運動場）,大阪府岸和田市春木旭町33-1,1,1,1,1,1,1,1,,1,34.477861860382,135.3953743618,
319,E2720200047202,春木小学校（運動場）,大阪府岸和田市春木宮川町11-13,1,1,,1,,1,1,,1,34.480030297224,135.38758919374,
320,E2720200047201,春木小学校（３階教室、３階会議室及び３階廊下）,大阪府岸和田市春木宮川町11-13,,,1,,1,,,,1,34.47959251648,135.38751945631,
321,E2720200049201,ラパーク岸和田（３階駐車場、４階駐車場及び屋上駐車場）,大阪府岸和田市春木若松町21-1,,,1,,1,,,,1,34.479440042615,135.39222455544,
322,E2720200050201,岸和田競輪場（周辺駐車場を含む。）,大阪府岸和田市春木若松町22,,1,,1,,1,,,,34.482522505827,135.39318979524,
323,E2720200051201,春木台場青少年広場,大阪府岸和田市春木泉町20-48,1,1,,1,,1,1,,,34.476622856649,135.37867525826,
324,E2720200052201,春木南地車庫（２階）,大阪府岸和田市春木泉町3,,,1,,1,,,,,34.477225028089,135.38210061951,
325,E2720200053201,八木南小学校（運動場）,大阪府岸和田市小松里町768-1,1,1,1,1,1,1,1,,1,34.46058651932,135.40476487858,
326,E2720200055202,春木中学校（運動場）,大阪府岸和田市松風町10-65,,1,,1,,1,,,1,34.484020086085,135.38408722839,
327,E2720200055201,春木中学校（３階廊下及び屋上）,大阪府岸和田市松風町10-65,,,1,,1,,,,1,34.483975868027,135.38522448502,
328,E2720200056201,上松公園（ときわ公園）,大阪府岸和田市上松町２１外,1,1,1,1,1,1,1,,,34.454134218517,135.39009161276,
329,E2720200057201,朝陽小学校（３階廊下）,大阪府岸和田市上野町西1-28,,,1,,1,,,,1,34.466627347708,135.37882575744,
330,E2720200057202,朝陽小学校（運動場）,大阪府岸和田市上野町西1-28,1,1,,1,,1,1,,1,34.466514,135.379304,
331,E2720200058201,牛ノ口公園,大阪府岸和田市上野町東205-1,1,1,,1,,1,1,,,34.465625297407,135.38191900742,
332,E2720200061201,中央公園,大阪府岸和田市西之内町8-2,1,1,1,1,1,1,1,,,34.469689211468,135.3939515426,
333,E2720200064201,八木小学校（運動場）,大阪府岸和田市大町3-22-1,,1,1,1,1,1,,,1,34.46869,135.410377,
334,E2720200065201,八木運動広場,大阪府岸和田市大町4-10-1,1,1,1,1,1,1,1,,,34.466212448656,135.41088593711,
335,E2720200066201,浜工業公園,大阪府岸和田市地蔵浜町10-1,1,1,,1,,1,1,,,34.460386889774,135.36185276619,
336,E2720200069201,久米田中学校（運動場）,大阪府岸和田市池尻町705,1,1,1,1,1,1,1,,1,34.457035003906,135.4092683544,
337,E2720200070201,久米田公園,大阪府岸和田市池尻町918,1,1,1,1,1,1,1,,,34.454643,135.420904,
338,E2720200071201,天神山小学校（運動場）,大阪府岸和田市天神山町1-1-1,1,1,1,1,1,1,1,,1,34.429398605292,135.3934266434,
339,E2720200074201,山直北小学校（運動場）,大阪府岸和田市田治米町460,,1,1,1,1,1,,,1,34.459925879723,135.42656391974,
340,E2720200075201,修斉小学校（運動場）,大阪府岸和田市土生滝町521,1,1,1,1,1,1,1,,1,34.427482202819,135.40728781817,
341,E2720200128201,土生中学校（運動場）,大阪府岸和田市土生町12-10-1,1,1,1,1,1,1,1,,1,34.444565,135.396016,
342,E2720200078201,中島池公園,大阪府岸和田市土生町13-694-1,1,1,1,1,1,1,1,,,34.443073089954,135.39655076327,
343,E2720200081201,今池公園,大阪府岸和田市土生町2-828-1,1,1,1,1,1,1,1,,,34.452511733138,135.38000042088,
344,E2720200080201,葛城中学校（運動場）,大阪府岸和田市土生町213-1,1,1,1,1,1,1,1,,1,34.436661976984,135.40277669223,
345,E2720200083201,土生公園,大阪府岸和田市土生町4-4405,1,1,1,1,1,1,1,,,34.449065,135.386334,
346,E2720200127201,旭小学校（運動場）,大阪府岸和田市土生町7-5-15,1,1,1,1,1,1,1,,1,34.442017,135.390974,
347,E2720200087201,光陽中学校（運動場）,大阪府岸和田市藤井町3-6-6,1,1,1,1,1,1,1,,1,34.462374159123,135.38655686077,
348,E2720200089201,山滝小学校（運動場）,大阪府岸和田市内畑町1041,1,1,1,1,1,1,1,,1,34.413166934851,135.43817586603,
349,E2720200090201,山滝中学校（運動場）,大阪府岸和田市内畑町166-3,1,1,1,1,1,1,1,,1,34.4176148581,135.43934436929,
350,E2720200091201,南公園,大阪府岸和田市南上町1-431-1,1,1,1,1,1,1,1,,,34.454132293033,135.36845730605,
351,E2720200093201,鴨田池青少年広場,大阪府岸和田市南上町2-290,1,1,1,1,1,1,1,,,34.452325965181,135.37242461936,
352,E2720200092201,城内小学校（運動場）,大阪府岸和田市南上町2-3-1,1,1,1,1,1,1,1,,1,34.453426047786,135.37239344795,
353,E2720200095201,太田小学校（運動場）,大阪府岸和田市畑町3-12-1,1,1,1,1,1,1,1,,1,34.441627151137,135.38676481889,
354,E2720200097201,葛城運動広場,大阪府岸和田市畑町4-2-1,1,1,1,1,1,1,1,,,34.441009727661,135.3904635059,
355,E2720200098201,春木運動広場,大阪府岸和田市八幡町6-11,,1,,1,,1,,,,34.48152450137,135.39051715008,
356,E2720200099201,八幡山公園,大阪府岸和田市八幡町779-4,,1,,1,,1,,,,34.483190728903,135.38845286857,
357,E2720200100201,菊ケ池青少年広場,大阪府岸和田市尾生町1067-2,1,1,1,1,1,1,1,,,34.444761497375,135.40635201785,
358,E2720200104201,光明小学校（運動場）,大阪府岸和田市尾生町564,1,1,1,1,1,1,1,,1,34.44363046415,135.41197614789,
359,E2720200107201,東光小学校（運動場）,大阪府岸和田市別所町2-1-30,1,1,1,1,1,1,1,,1,34.45880589449,135.38192936694,
360,E2720200110201,産業高等学校（運動場）,大阪府岸和田市別所町3-33-1,1,1,1,1,1,1,1,,1,34.461119678477,135.39037136699,
361,E2720200109201,宮の池公園,大阪府岸和田市別所町３－１０２－１外５筆,1,1,1,1,1,1,1,,,34.456529735113,135.3846310264,
362,E2720200112201,岸和田市役所別館（３階廊下、４階廊下及び屋上）,大阪府岸和田市本町6-1,,,1,,1,,,,,34.461010912054,135.36987381198,
363,E2720200114201,大阪木材商業会館（３階廊下及び屋上）,大阪府岸和田市木材町15-8,,,1,,1,,,,,34.486516548118,135.37810930373,
364,E2720200116201,岸城中学校（運動場）,大阪府岸和田市野田町2-19-19,1,1,1,1,1,1,1,,1,34.45567311509,135.37879406494,
365,E2720200117201,野田公園,大阪府岸和田市野田町2-215-1,1,1,1,1,1,1,1,,,34.45501980535,135.37942642815,
366,E2736100002201,北小学校グラウンド,大阪府熊取町希望が丘4-14-1,1,1,,1,,1,1,,1,34.406558367896,135.36485747935,
367,E2736100003201,東小学校グラウンド,大阪府熊取町久保4-1306-1,1,1,,1,,1,1,,1,34.39121930439,135.37062692388,
368,E2736100006201,熊取歴史公園,大阪府熊取町紺屋1-140-5,,1,,1,,1,1,,,34.40148333552,135.34898905334,
369,E2736100007201,大久保防災コミュニティ公園,大阪府熊取町大久保中3-582-10,,1,,1,,1,1,,,34.403086031606,135.34059196508,
370,E2736100008201,西小学校グラウンド,大阪府熊取町大久保南1-1589,1,1,,1,,1,1,,1,34.395296761901,135.34407055992,
371,E2736100009201,八幡池青少年広場,大阪府熊取町大宮2-484-1,1,1,,1,,1,1,,,34.396069773037,135.3672119126,
372,E2736100011201,南小学校グラウンド,大阪府熊取町朝代東4-16-1,1,1,,1,,1,1,,1,34.384583563502,135.35631981084,
373,E2736100012201,長池オアシス公園,大阪府熊取町長池621-77,1,1,,1,,1,1,,,34.390435421746,135.35400611084,
374,E2736100014201,中央小学校グラウンド,大阪府熊取町野田2-2-1,1,1,,1,,1,1,,1,34.399869533954,135.35610165693,
375,E2723000034201,郡津公園,大阪府交野市幾野2,1,1,,1,,1,1,,,34.794167,135.681915,
376,E2723000001201,第二中学校,大阪府交野市幾野4-1-1,1,1,,1,,1,1,,1,34.795488514513,135.68163245369,
377,E2723000002201,交野みらい小学校,大阪府交野市郡津1-43-1,1,1,,1,,1,1,,1,34.791203937064,135.67593667855,
378,E2723000004201,郡津小学校,大阪府交野市郡津4-13-1,1,1,,1,,1,1,,1,34.792335416472,135.6739992461,
379,E2723000005201,総合体育施設,大阪府交野市向井田2-5-1,1,1,,1,,1,1,,1,34.784877,135.687848,
380,E2723000007201,私市小学校,大阪府交野市私市9-5-10,1,1,,1,,1,1,,1,34.764857224035,135.68812084664,
381,E2723000031201,交野みらい学園,大阪府交野市私部1,1,1,,1,,1,1,,,34.787308,135.686279,
382,E2723000011201,私部公園,大阪府交野市私部南3,1,1,,1,,1,1,,,34.782120271216,135.68614491968,
383,E2723000012201,第一中学校,大阪府交野市私部南3-1-1,1,1,,1,,1,1,,1,34.782736948688,135.68364221849,
384,E2723000035201,松塚公園,大阪府交野市松塚,,1,,1,,1,,,,34.793414,135.669896,
385,E2723000016201,岩船小学校,大阪府交野市森北1-25-1,1,1,,1,,1,1,,1,34.778525439892,135.68618855176,
386,E2723000017201,倉治公園,大阪府交野市神宮寺2-9-5,1,,,1,,1,1,,,34.791865640944,135.70058593301,
387,E2723000018201,星田公園,大阪府交野市星田3,1,1,,1,,1,1,,,34.765005814569,135.67018041163,
388,E2723000019201,星田小学校,大阪府交野市星田3-33-4,1,1,,1,,1,1,,1,34.76641086613,135.66677065859,
389,E2723000021201,旭小学校,大阪府交野市星田4-18-1,1,1,,1,,1,1,,1,34.764749223331,135.66463962251,
390,E2723000036201,傍示川緑道,大阪府交野市星田6,,1,,1,,1,,,,34.762646,135.662231,
391,E2723000022201,第三中学校,大阪府交野市星田8-67-1,1,1,,1,,1,1,,1,34.761058731649,135.66920660915,
392,E2723000024201,天野川緑地公園,大阪府交野市星田北1,,1,,1,,1,1,,,34.774683,135.6764,
393,E2723000025201,藤が尾小学校,大阪府交野市星田北2-45-1,1,1,,1,,1,1,,1,34.773016116326,135.67358260117,
394,E2723000027201,倉治小学校,大阪府交野市倉治1-15-1,1,1,,1,,1,1,,1,34.793878824093,135.69379732799,
395,E2723000029201,第四中学校,大阪府交野市天野が原町5-65-1,,1,,1,,1,1,,1,34.776007675081,135.67891232412,
396,E2723000030201,妙見坂小学校,大阪府交野市妙見坂7-20-1,1,,,1,,1,1,,1,34.761581032782,135.67680847835,
397,E2722500001201,ライブリー高石,大阪府高石市綾園1-1-21,,,,,1,,,,,34.522037580583,135.43416931364,
398,E2722500002201,エスタシオン高石,大阪府高石市綾園1-12-28,,,,,1,,,,,34.520625140683,135.43298336357,
399,E2722500003201,アレグレット高石,大阪府高石市綾園1-12-30,,,,,1,,,,,34.520785638503,135.43321735228,
400,E2722500004201,ＩＳＥ伊勢住宅　綾園６５０２,大阪府高石市綾園1-6-3,,,,,1,,,,,34.52049259748,135.43529244088,
401,E2722500005201,たかいし市民文化会館（アプラホール）,大阪府高石市綾園1-9-1,1,,1,,1,,1,,1,34.521203293435,135.43401557608,「洪水」では2階以上に避難、「高潮」では3階以上に避難
402,E2722500006201,フィオレ高石,大阪府高石市綾園3-14-25,,,,,1,,,,,34.519721064076,135.43070273358,
403,E2722500007201,マスターズエル綾園２０,大阪府高石市綾園3-2-5,,,,,1,,,,,34.52001720046,135.43287192494,
404,E2722500008201,ふれあいゾーン複合センター,大阪府高石市綾園4-5-28,1,,,,1,,1,,1,34.517592831617,135.43322368179,「洪水」では2階以上に避難
405,E2722500009201,高南中学校,大阪府高石市綾園5-4-52,1,,1,,1,,1,,1,34.516681817283,135.43058441885,「洪水」では2階以上に避難、「高潮」では3階以上に避難
406,E2722500010201,清風南海学園,大阪府高石市綾園5-7-64,,,,,1,,,,,34.517379766016,135.4276728715,
407,E2722500011201,プロスパーイシイ,大阪府高石市綾園6-3-16,,,,,1,,,,,34.517110167839,135.43747672127,
408,E2722500012201,シャルマンフジマイセレクト高石,大阪府高石市綾園7-4-15,,,,,1,,,,,34.514745645115,135.42829079457,
409,E2722500013201,パンセ羽衣（羽衣公民館、慶翠苑）,大阪府高石市羽衣1-11-22,1,,1,,1,,1,,1,34.535868138273,135.44044623287,「洪水」では2階以上に避難、「高潮」では3階以上に避難
410,E2722500014201,マーレ羽衣,大阪府高石市羽衣1-12-25,,,,,1,,,,,34.535429280282,135.44008359004,
411,E2722500015201,ガーデンウェルズ浜寺公園,大阪府高石市羽衣2-2-21,,,,,1,,,,,34.537677420954,135.44005912028,
412,E2722500016201,ローレルコート羽衣,大阪府高石市羽衣2-5-45,,,,,1,,,,,34.534604877441,135.4374329677,
413,E2722500017201,羽衣小学校,大阪府高石市羽衣3-2-52,1,,1,,1,,1,,1,34.532295549231,135.43965213873,「洪水」では2階以上に避難、「高潮」では3階以上に避難
414,E2722500018201,レジデンス羽衣ガーデンスクエア,大阪府高石市羽衣4-13-23,,,,,1,,,,,34.530155476221,135.43450439828,
415,E2722500019201,メゾンドール羽衣パークサイド,大阪府高石市羽衣4-2-37,,,,,1,,,,,34.532953177571,135.43585366098,
416,E2722500020201,総合保健センター,大阪府高石市羽衣4-4-26,1,,1,,1,,1,,1,34.531495356542,135.43591758607,「洪水」では2階以上に避難、「高潮」では3階以上に避難
417,E2722500021201,大阪府住宅供給公社羽衣団地,大阪府高石市羽衣4-5-20,,,,,1,,,,,34.531245123788,135.43487602876,
418,E2722500022201,グランドメゾン羽衣伽羅橋,大阪府高石市羽衣5-1-43,,,,,1,,,,,34.530131620209,135.43666858544,
419,E2722500023201,メゾンドール羽衣伽羅橋,大阪府高石市羽衣5-1-65,,,,,1,,,,,34.530941546593,135.43651941111,
420,E2722500024201,ブラームス高石,大阪府高石市加茂1-20-9,,,,,1,,,,,34.525047462572,135.43873990149,
421,E2722500025201,関西スーパー高石駅前店,大阪府高石市加茂1-21-23,,,,,1,,,,,34.522906826097,135.43555514901,
422,E2722500026201,中央公民館,大阪府高石市加茂1-5-7,1,,1,,1,,1,,1,34.52497240518,135.44019514242,「洪水」では2階以上に避難、「高潮」では2階以上に避難
423,E2722500027201,加茂小学校,大阪府高石市加茂3-4-34,1,,1,,1,,1,,1,34.52125466776,135.44298025597,「洪水」では2階以上に避難
424,E2722500028201,日鉄建材株式会社避難タワー,大阪府高石市高砂2-11,,,,,1,,,,,34.531400190702,135.41724847186,
425,E2722500029201,株式会社きんでん中央支店南大阪営業所,大阪府高石市高砂3-12-1,,,,,1,,,,,34.535866191714,135.4059072271,
426,E2722500030201,株式会社読売大阪プリントメディア,大阪府高石市高砂3-40,,,,,1,,,,,34.538494581389,135.40780470909,
427,E2722500031201,カターラオーシマ,大阪府高石市高師浜1-1-9,,,,,1,,,,,34.528874743483,135.4350702058,
428,E2722500032201,マスターズエル高師浜２１,大阪府高石市高師浜1-25-5,,,,,1,,,,,34.525149572823,135.43707320911,
429,E2722500033201,ＩＳＥ伊勢住宅　高師浜７１０７,大阪府高石市高師浜3-1-15,,,,,1,,,,,34.526420643561,135.43272925397,
430,E2722500034201,プリモディーネ高石,大阪府高石市高師浜3-17-32,,,,,1,,,,,34.52561708457,135.43201145257,
431,E2722500035201,高石小学校,大阪府高石市高師浜3-19-17,1,,1,,1,,1,,1,34.524091271819,135.4330145541,「洪水」では2階以上に避難
432,E2722500036201,ライフ高石店,大阪府高石市高師浜3-20-20,,,,,1,,,,,34.523331,135.434401,
433,E2722500038201,取石中学校,大阪府高石市取石3-11-1,1,,1,,1,,1,,1,34.517721340464,135.45194089593,「洪水」では2階以上に避難
434,E2722500039201,取石小学校,大阪府高石市取石3-14-23,1,,1,,1,,1,,1,34.517686898115,135.4493620073,「洪水」では2階以上に避難
435,E2722500040201,東コミュニティセンター（とろしプラザ）,大阪府高石市取石3-9-8,1,,1,,1,,1,,1,34.5185,135.4534,「洪水」では2階以上に避難
436,E2722500041201,レディエンス高石,大阪府高石市西取石3-6-16,,,,,1,,,,,34.523426317866,135.44447689907,
437,E2722500042201,ヴァンヴェール川西,大阪府高石市西取石3-7-21,,,,,1,,,,,34.523116752405,135.44359953062,
438,E2722500043201,市立総合体育館,大阪府高石市西取石6-5-6,1,,1,,1,,1,,1,34.520474079441,135.4447376945,「洪水」では2階以上に避難
439,E2722500044201,清高小学校,大阪府高石市西取石8-5-1,1,,1,,1,,1,,1,34.516233353872,135.44074528142,「洪水」では2階以上に避難
440,E2722500045201,ウエストプラザ高石,大阪府高石市千代田1-11-11,,,,,1,,,,,34.522208749409,135.43288990313,
441,E2722500046201,スコーレ高師浜,大阪府高石市千代田2-3-30,,,,,1,,,,,34.525936118097,135.42808863418,
442,E2722500047201,グランドパレス高石,大阪府高石市千代田2-3-6,,,,,1,,,,,34.526083,135.428806,
443,E2722500048201,セントエルモ高石,大阪府高石市千代田4-3-28,,,,,1,,,,,34.523366461009,135.42569720237,
444,E2722500049201,コミュニティセンター（デージードーム）,大阪府高石市千代田4-5-25,1,,1,,1,,1,,1,34.5217,135.4264,「洪水」では2階以上に避難「高潮」では3階以上に避難
445,E2722500050201,堺化学工業株式会社高石社宅,大阪府高石市千代田4-8-5,,,,,1,,,,,34.521477931322,135.42602540702,
446,E2722500051201,高陽小学校,大阪府高石市千代田5-8-40,1,,1,,1,,1,,1,34.519008111273,135.42775607431,「洪水」では2階以上に避難、「高潮」では3階以上に避難
447,E2722500052201,府立高石高校,大阪府高石市千代田6-12-1,,,,,1,,,,,34.519739390596,135.42247041322,
448,E2722500053201,旧高陽幼稚園避難タワー,大阪府高石市千代田6-12-48,,,,,1,,,,,34.518472570887,135.4234610324,
449,E2722500054201,南海福祉看護専門学校,大阪府高石市千代田6-12-53,,,,,1,,,,,34.5189914546,135.42105103371,
450,E2722500055201,東羽衣小学校,大阪府高石市東羽衣2-21-32,1,,1,,1,,1,,1,34.53136836425,135.44343555347,「高潮」では2階以上に避難
451,E2722500056201,東羽衣公民館,大阪府高石市東羽衣3-15-30,1,,1,,1,,1,,1,34.531399265663,135.44149845926,「洪水」では2階以上に避難、「高潮」では2階以上に避難
452,E2722500057201,ウォーク羽衣,大阪府高石市東羽衣3-8-20,,,,,1,,,,,34.5330654562,135.4420416615,
453,E2722500058201,ファミーユ羽衣,大阪府高石市東羽衣5-17-25,,,,,1,,,,,34.529289381106,135.44125029528,
454,E2722500059201,フレンドシップ高石,大阪府高石市東羽衣5-26-41,,,,,1,,,,,34.528216514572,135.44095046393,
455,E2722500060201,エンデバー高石,大阪府高石市東羽衣6-20-22,,,,,1,,,,,34.52421746209,135.44339063125,
456,E2722500061201,三井化学株式会社羽衣寮,大阪府高石市東羽衣6-21-11,,,,,1,,,,,34.524322670092,135.44418627948,
457,E2722500062201,高石中学校,大阪府高石市東羽衣6-6-45,1,,1,,1,,1,,1,34.525437486053,135.44670861056,「洪水」では2階以上に避難
458,E2720700001201,西阿武野コミュニティセンター,大阪府高槻市阿武野1-10-2,1,,,1,,,,,1,34.855472,135.575379,
459,E2720700002201,阿武山小学校,大阪府高槻市阿武野2-1-2,1,1,,1,,,,,1,34.86032938,135.576804,
460,E2720700004201,安岡寺小学校,大阪府高槻市安岡寺町1-60-1,1,1,,1,,,,,1,34.87223573,135.6039476,
461,E2720700005201,北清水小学校,大阪府高槻市安岡寺町6-2-1,1,,,1,,,,,1,34.88171607,135.6044855,
462,E2720700006201,北清水幼稚園,大阪府高槻市安岡寺町6-2-2,1,,,1,,,,,,34.88096367,135.6050616,
463,E2720700008201,磐手小学校,大阪府高槻市安満西の町27-1,1,1,,1,,,,,1,34.86109413,135.6288424,
464,E2720700009201,磐手公民館,大阪府高槻市安満北の町18-1,1,1,,1,,,,,1,34.86302206,135.6290421,
465,E2720700011201,芥川高等学校,大阪府高槻市浦堂1-12-1,1,,,1,,,,,,34.86240028,135.6007441,
466,E2720700012201,寿栄小学校,大阪府高槻市栄町3-11-2,1,,,1,,,,,1,34.82581257,135.6016842,
467,E2720700013201,寿栄コミュニティセンター,大阪府高槻市栄町3-11-3,1,,,1,,,,,1,34.82651044,135.6004555,
468,E2720700015201,大冠北第一コミュニティセンター,大阪府高槻市永楽町1-15,,,,1,,,,,1,34.84561151,135.632587,
469,E2720700014201,第六中学校,大阪府高槻市永楽町10-3,1,,,1,,,,,1,34.84684461,135.6379218,
470,E2720700017201,芥川公民館,大阪府高槻市芥川町4-20-12,1,,,1,,,,,1,34.85201085,135.6083828,
471,E2720700020201,清水小学校,大阪府高槻市宮之川原4-20-1,1,1,,1,,,,,1,34.86592198,135.6005862,
472,E2720700021201,清水認定こども園,大阪府高槻市宮之川原5-4-1,1,,,1,,,,,,34.8657028,135.5977203,
473,E2720700022201,清水コミュニティセンター,大阪府高槻市宮之川原5-4-3,1,,,1,,,,,1,34.86573604,135.598383,
474,E2720700023201,大冠北第二コミュニティセンター,大阪府高槻市宮野町10-16,1,,,1,,,,,1,34.85062328,135.6372429,
475,E2720700024201,北大冠小学校,大阪府高槻市宮野町10-5,1,,,1,,,,,1,34.85133819,135.6366327,
476,E2720700026201,今城塚公民館,大阪府高槻市郡家新町48-3,1,,,1,,,,,1,34.85224545,135.5948507,
477,E2720700027201,郡家老人福祉センター,大阪府高槻市郡家新町48-6,1,,,1,,,,,,34.85178644,135.594912,
478,E2720700029201,郡家小学校,大阪府高槻市郡家新町68-1,1,,,1,,,,,1,34.85131006,135.5967825,
479,E2720700030201,郡家幼稚園,大阪府高槻市郡家新町68-3,1,,,1,,,,,,34.85045374,135.5965305,
480,E2720700035201,第二中学校,大阪府高槻市郡家本町52-1,1,,,1,,,,,1,34.85713408,135.5966412,
481,E2720700038201,五領公民館,大阪府高槻市五領町11-6,1,,,1,,,,,1,34.86200608,135.6535257,
482,E2720700039201,五領小学校,大阪府高槻市五領町12-1,1,1,,1,,,,,1,34.86176134,135.6526819,
483,E2720700040201,第八中学校,大阪府高槻市紅茸町5-1,1,,,1,,,,,1,34.8646137,135.6275032,
484,E2720700041201,三島高等学校,大阪府高槻市今城町27-1,1,,,1,,,,,,34.84726724,135.5973741,
485,E2720700042201,総合市民交流センター（クロスパル高槻）,大阪府高槻市紺屋町1-2,1,,,1,,,,,,34.85203472,135.6191024,
486,E2720700044201,三箇牧公民館,大阪府高槻市三島江1-11-8,1,,,1,,,,,1,34.80358779,135.6115203,
487,E2720700045201,三箇牧認定こども園,大阪府高槻市三島江1-13-6,1,,,1,,,,,1,34.80575397,135.6138626,
488,E2720700045202,三箇牧小学校,大阪府高槻市三島江1-13-6,1,,,1,,,,,1,34.80487083,135.6131706,
489,E2720700048201,山手老人福祉センター,大阪府高槻市山手町2-2-2,1,,,1,,,,,,34.86214967,135.6390098,
490,E2720700049201,日吉台公民館,大阪府高槻市寺谷町50-1,1,1,,1,,,,,1,34.87800809,135.6085535,
491,E2720700050201,第三中学校,大阪府高槻市芝生町2-49-5,1,,,1,,,,,1,34.8320955,135.6078269,
492,E2720700051201,女瀬川南コミュニティセンター,大阪府高槻市芝生町3-16-1,1,,,1,,,,,1,34.82786983,135.6099804,
493,E2720700052201,丸橋小学校,大阪府高槻市芝生町3-16-2,1,,,1,,,,,1,34.82719863,135.6102654,
494,E2720700053201,芝生幼稚園,大阪府高槻市芝生町3-30-1,1,,,1,,,,,1,34.82569958,135.6076428,
495,E2720700053202,芝生小学校,大阪府高槻市芝生町3-30-1,1,,,1,,,,,1,34.82575243,135.6087371,
496,E2720700054201,芝谷中学校,大阪府高槻市芝谷町3-1,1,,,1,,,,,1,34.8697528,135.6096437,
497,E2720700055201,若松小学校,大阪府高槻市若松町22-2,1,,,1,,,,,1,34.83460861,135.6282436,
498,E2720700057201,春日ふれあい文化センター,大阪府高槻市春日町22-1,1,,,1,,,,,1,34.836798,135.627656,
499,E2720700058202,富田小学校,大阪府高槻市昭和台町1-1-1,1,,,1,,,,,1,34.83025498,135.5907564,
500,E2720700059201,第九中学校,大阪府高槻市松が丘1-17-1,1,1,,1,,,,,1,34.87325172,135.5994963,
501,E2720700061201,土室小学校,大阪府高槻市上土室6-10-1,1,,,1,,,,,1,34.84839695,135.5772714,
502,E2720700062201,土室幼稚園,大阪府高槻市上土室6-10-2,1,,,1,,,,,,34.84871481,135.5777299,
503,E2720700063201,上牧小学校,大阪府高槻市上牧町4-22-1,1,,,1,,,,,1,34.86042773,135.6610499,
504,E2720700064201,桃園コミュニティセンター,大阪府高槻市城西町10-12,1,,,1,,,,,1,34.84143975,135.6142218,
505,E2720700065201,地域福祉会館,大阪府高槻市城西町4-6,1,,,1,,,,,,34.84439682,135.6166986,
506,E2720700066201,城内公民館,大阪府高槻市城内町1-1,1,,,1,,,,,1,34.84466381,135.6224442,
507,E2720700067201,障がい者福祉センター,大阪府高槻市城内町1-11,1,,,1,,,,,1,34.84468817,135.6234569,
508,E2720700068201,第一中学校,大阪府高槻市城内町1-35,1,,,1,,,,,1,34.84406269,135.6229994,
509,E2720700069201,槻の木高等学校,大阪府高槻市城内町2-13,1,,,1,,,,,,34.84335631,135.6208416,
510,E2720700070201,城南中学校,大阪府高槻市城南町2-30-1,1,,,1,,,,,1,34.83867555,135.6260404,
511,E2720700071201,西大冠小学校,大阪府高槻市城南町3-1-1,1,,,1,,,,,1,34.83809376,135.6235331,
512,E2720700072201,西大冠幼稚園,大阪府高槻市城南町3-1-2,1,,,1,,,,,,34.8370358,135.6232589,
513,E2720700073201,西大冠コミュニティセンター,大阪府高槻市城南町3-1-3,1,,,1,,,,,1,34.8370098,135.6238798,
514,E2720700074201,芥川小学校,大阪府高槻市真上町1-2-3,1,1,,1,,,,,1,34.85494262,135.6136064,
515,E2720700075201,芥川幼稚園,大阪府高槻市真上町1-2-6,1,,,1,,,,,,34.85462406,135.6132433,
516,E2720700076201,真上公民館,大阪府高槻市真上町2-16-6,1,,,1,,,,,1,34.85780036,135.6087336,
517,E2720700077201,五領認定こども園,大阪府高槻市神内2-17-10,1,,,1,,,,,,34.8706412694509,135.657619777753,
518,E2720700078201,北清水公民館,大阪府高槻市清水台1-7-1,1,1,,1,,,,,1,34.87847928,135.5982129,
519,E2720700079201,川西コミュニティセンター,大阪府高槻市清福寺町6-5,1,,,1,,,,,1,34.85173849,135.6043528,
520,E2720700080201,真上小学校,大阪府高槻市西真上2-17-1,1,,,1,,,,,1,34.85785089,135.6008221,
521,E2720700081201,柳川小学校,大阪府高槻市西町2-1,1,,,1,,,,,1,34.82508778,135.5957773,
522,E2720700082201,柳川コミュニティセンター,大阪府高槻市西町2-5,1,,,1,,,,,1,34.8237971,135.5955438,
523,E2720700083201,第七中学校,大阪府高槻市西面北1-45-1,1,,,1,,,,,1,34.8069861,135.6036552,
524,E2720700084201,赤大路小学校,大阪府高槻市赤大路町15-1,1,,,1,,,,,1,34.8349195,135.5850836,
525,E2720700085201,赤大路コミュニティセンター,大阪府高槻市赤大路町15-6,1,,,1,,,,,1,34.83558069,135.5861158,
526,E2720700086201,川西小学校,大阪府高槻市川西町1-34-7,1,,,1,,,,,1,34.85125262,135.6043534,
527,E2720700087201,川西中学校,大阪府高槻市川西町2-33-1,1,,,1,,,,,1,34.84588817,135.6052545,
528,E2720700088201,清水池コミュニティセンター,大阪府高槻市川西町3-7-7,1,,,1,,,,,1,34.84544998,135.6092104,
529,E2720700089201,柳川中学校,大阪府高槻市川添1-1-5,1,,,1,,,,,1,34.82302733,135.5993948,
530,E2720700091201,冠中学校,大阪府高槻市大冠町2-24-1,,,,1,,,,,1,34.83212077,135.6378284,
531,E2720700092201,冠コミュニティセンター,大阪府高槻市大冠町2-40-10,,,,1,,,,,1,34.83329484,135.637001,
532,E2720700093201,冠小学校,大阪府高槻市大冠町2-40-2,1,,,1,,,,,1,34.83405635,135.6367174,
533,E2720700094201,原公民館,大阪府高槻市大字原808-3,1,,,1,,,,,,34.89439735,135.5993833,
534,E2720700096201,樫田支所,大阪府高槻市大字田能小字スハノ下11,1,1,,1,,,,,,34.95555831,135.5893686,
535,E2720700097201,樫田幼稚園,大阪府高槻市大字田能小字スハノ下12-1,1,1,,1,,,,,,34.9556246516945,135.589666105264,
536,E2720700098201,樫田小学校,大阪府高槻市大字田能小字岡崎6,1,1,,1,,,,,1,34.95552912,135.5885946,
537,E2720700103201,南大冠公民館,大阪府高槻市大塚町1-20-1,,,,1,,,,,1,34.82235906,135.6328724,
538,E2720700104202,南大冠小学校,大阪府高槻市大塚町1-4-8,1,,,1,,,,,1,34.82593291,135.634221,
539,E2720700104201,南大冠幼稚園,大阪府高槻市大塚町1-4-8,,,,1,,,,,1,34.82670354,135.633132,
540,E2720700105201,大冠高等学校,大阪府高槻市大塚町4-50-1,1,,,1,,,,,,34.81978847,135.6295914,
541,E2720700106201,第四中学校,大阪府高槻市大畑町4-4,1,,,1,,,,,1,34.83903323,135.59198,
542,E2720700107201,松原小学校,大阪府高槻市沢良木町18-1,1,,,1,,,,,1,34.84573286,135.6315606,
543,E2720700108201,松原幼稚園,大阪府高槻市沢良木町18-2,1,,,1,,,,,,34.8458533,135.6321212,
544,E2720700109201,竹の内小学校,大阪府高槻市竹の内町60-1,1,,,1,,,,,1,34.82466664,135.627714,
545,E2720700110201,竹の内コミュニティセンター,大阪府高槻市竹の内町60-6,1,,,1,,,,,1,34.82510744,135.6277782,
546,E2720700111201,第十中学校,大阪府高槻市竹の内町61-1,1,,,1,,,,,1,34.82174019,135.6277932,
547,E2720700113201,柱本小学校,大阪府高槻市柱本新町10-8,1,,,1,,,,,1,34.79244248,135.6022003,
548,E2720700114201,津之江小学校,大阪府高槻市津之江北町7-1,1,,,1,,,,,1,34.84324526,135.6051671,
549,E2720700115201,津之江幼稚園,大阪府高槻市津之江北町7-2,1,,,1,,,,,,34.8430532,135.6060942,
550,E2720700118201,堤運動広場,大阪府高槻市堤町3-1,1,,,1,,,,,,34.82743975,135.6179523,
551,E2720700119201,堤コミュニティセンター,大阪府高槻市堤町3-2,1,,,1,,,,,1,34.82724647,135.618389,
552,E2720700120201,大冠小学校,大阪府高槻市天川町42-2,1,,,1,,,,,1,34.84169603,135.6341072,
553,E2720700121201,桜台小学校,大阪府高槻市登町9-1,1,,,1,,,,,1,34.83009231,135.6250865,
554,E2720700122201,桜台認定こども園,大阪府高槻市登町9-2,1,,,1,,,,,,34.830864,135.6247624,
555,E2720700123201,五百住小学校,大阪府高槻市登美の里町24-1,1,,,1,,,,,1,34.83429366,135.6007731,
556,E2720700124201,五百住幼稚園,大阪府高槻市登美の里町24-2,1,,,1,,,,,,34.83320488,135.6005039,
557,E2720700126201,私立金光大阪中学校・高等学校,大阪府高槻市東上牧1-3-1,1,1,,1,,,,,,34.86988441,135.6631084,
558,E2720700128201,総合センター,大阪府高槻市桃園町2-1,1,,,1,,,,,,34.84658377,135.6174155,
559,E2720700129201,桃園小学校,大阪府高槻市桃園町3-27,1,,,1,,,,,1,34.84503591,135.6161077,
560,E2720700130201,五領中学校,大阪府高槻市道鵜町3-20-1,1,,,1,,,,,1,34.85778897,135.6557121,
561,E2720700131201,阿武山中学校,大阪府高槻市奈佐原1-2-1,1,,,1,,,,,1,34.85817152,135.581962,
562,E2720700132201,阿武山公民館,大阪府高槻市奈佐原2-11-12,1,,,1,,,,,1,34.86024149,135.5801859,
563,E2720700134201,庄所コミュニティセンター,大阪府高槻市南庄所町3-3,1,,,1,,,,,1,34.83693303,135.6144956,
564,E2720700137201,南平台小学校,大阪府高槻市南平台5-20-1,1,1,,1,,,,,1,34.86229326,135.5904658,
565,E2720700138201,阿武野コミュニティセンター,大阪府高槻市南平台5-21-2,1,1,,1,,,,,1,34.86207515,135.5885386,
566,E2720700139201,日吉台小学校,大阪府高槻市日吉台一番町24-18,1,1,,1,,,,,1,34.8699051,135.6130005,
567,E2720700140201,北日吉台小学校,大阪府高槻市日吉台三番町4-20,1,,,1,,,,,1,34.87894855,135.6089772,
568,E2720700141201,如是小学校,大阪府高槻市如是町2-3,1,,,1,,,,,1,34.83651154,135.6054144,
569,E2720700142201,如是公民館,大阪府高槻市如是町2-5,1,,,1,,,,,1,34.83615836,135.6049205,
570,E2720700143201,如是中学校,大阪府高槻市如是町7-1,1,,,1,,,,,1,34.8349744,135.6040705,
571,E2720700144201,関西大学　高槻ミューズキャンパス,大阪府高槻市白梅町7-1,1,,,1,,,,,,34.85499223,135.6228849,
572,E2720700147201,阿武野高等学校,大阪府高槻市氷室町3-38-1,1,,,1,,,,,,34.84871001,135.5863744,
573,E2720700148201,阿武野幼稚園,大阪府高槻市氷室町4-16-1,1,,,1,,,,,,34.85091784,135.5857346,
574,E2720700149201,阿武野小学校,大阪府高槻市氷室町4-4-5,1,,,1,,,,,1,34.85199616,135.588125,
575,E2720700150201,阿武野中学校,大阪府高槻市氷室町5-7-1,1,,,1,,,,,1,34.85858971,135.5849263,
576,E2720700151201,富田老人福祉センター,大阪府高槻市富田町2-4-9,1,,,1,,,,,,34.83261124,135.5913048,
577,E2720700153201,富田公民館,大阪府高槻市富田町5-17-1,1,,,1,,,,,1,34.83065857,135.5950958,
578,E2720700154201,奥坂コミュニティセンター,大阪府高槻市別所本町35-3,1,,,1,,,,,1,34.86322305,135.6250278,
579,E2720700155201,奥坂小学校,大阪府高槻市別所本町35-5,1,1,,1,,,,,1,34.86390847,135.6250001,
580,E2720700156201,高槻北高等学校,大阪府高槻市別所本町36-3,1,,,1,,,,,,34.86478519,135.6251278,
581,E2720700157201,玉川牧田コミュニティセンター,大阪府高槻市牧田町26-3,1,,,1,,,,,1,34.81992506,135.5990137,
582,E2720700158201,玉川小学校,大阪府高槻市牧田町8-1,1,,,1,,,,,1,34.819788,135.6041199,
583,E2720700160202,高槻小学校,大阪府高槻市本町3-69,1,,,1,,,,,1,34.84495335,135.6261916,
584,E2720700160201,高槻幼稚園,大阪府高槻市本町3-69,1,,,1,,,,,1,34.84546845,135.6268568,
585,E2723200002201,阪南市防災コミュニティセンター,大阪府阪南市下出14-3,1,1,1,1,1,1,1,,,34.360149,135.240196,
586,E2723200006201,上荘小学校,大阪府阪南市下出548-1,1,,1,1,1,1,1,,1,34.355600057665,135.24756153651,
587,E2723200009201,貝掛中学校,大阪府阪南市貝掛1372,1,1,1,1,1,1,1,,1,34.339990236277,135.22116230019,
588,E2723200013201,中央運動広場,大阪府阪南市光陽台1-17-24,,1,1,,1,1,1,,,34.347677070325,135.23646760998,
589,E2723200015201,鳥取中学校（救援部隊拠点）,大阪府阪南市黒田341,,,1,1,1,1,1,,,34.353372307245,135.24242955307,
590,E2723200026201,朝日小学校,大阪府阪南市自然田272-1,1,1,,1,1,1,1,,1,34.347322621406,135.26263018569,
591,E2723200030201,東鳥取小学校,大阪府阪南市石田６００一1,1,1,1,1,1,1,1,,1,34.351113250042,135.24631571791,
592,E2723200033201,西鳥取小学校,大阪府阪南市鳥取72,1,1,1,1,1,1,1,,1,34.355496177812,135.23369133046,
593,E2723200039201,飯の峯中学校,大阪府阪南市桃の木台3-9-1,1,1,1,1,1,1,1,,1,34.330393773422,135.22565631037,
594,E2723200040201,桃の木台中央公園（広域避難地）,大阪府阪南市桃の木台4-423,1,,,1,1,1,1,,,34.33021576871,135.21986681084,
595,E2723200041201,桃の木台小学校,大阪府阪南市桃の木台5-423-33,1,1,1,1,1,1,1,,1,34.327165114819,135.22064368158,
596,E2723200051201,下荘小学校,大阪府阪南市箱作2320,1,1,1,1,1,1,1,,1,34.336252345566,135.20499055044,
597,E2723200059201,尾崎小学校,大阪府阪南市尾崎町5-33-8,1,,1,1,,1,1,,1,34.368546179362,135.24810595859,
598,E2723200063201,舞小学校,大阪府阪南市舞4-6-31,1,1,,1,1,1,1,,1,34.338976749665,135.22983255524,
599,E2723200064201,府立泉鳥取高校,大阪府阪南市緑ケ丘1-1-10,1,1,,1,1,1,1,,1,34.339316888503,135.25913106672,
600,E2723200066201,鳥取東中学校,大阪府阪南市和泉鳥取1455,1,1,1,1,1,1,1,,1,34.346476670826,135.2646579357,
601,E2714000328201,くれたけイン南海堺駅前,大阪府堺市堺区栄橋町1-3-12,,,,,1,,,,,34.580508,135.468974,
602,E2714000003201,レックスシティ堺駅前,大阪府堺市堺区栄橋町2-1-10,,,,,1,,,,,34.580797664196,135.466594705,
603,E2714000004201,プロパレス堺駅前ピラーステージ,大阪府堺市堺区栄橋町2-1-24,,,,,1,,,,,34.580647992523,135.46685201378,
604,E2714000005201,榎小学校,大阪府堺市堺区榎元町2-3-11,,,1,1,,,,,1,34.57042975,135.4857367,
605,E2714000006201,阪神高速道路遠里小野換気所,大阪府堺市堺区遠里小野町1-24-25,,,,,1,,,,,34.59393609029,135.48941634486,
606,E2714000389201,グランキコーナ堺店,大阪府堺市堺区翁橋町1-7-1,,,,,1,,,,,34.572803,135.47731,
607,E2714000007201,市営翁橋住宅　１棟,大阪府堺市堺区翁橋町2-3-1,,,,,1,,,,,34.571692366354,135.48096489162,
608,E2714000329201,東急ドエルアルス堺フェニックス,大阪府堺市堺区海山町1-7-2,,,,,1,,,,,34.588651,135.477251,
609,E2714000008201,ファミールハイツ堺２番館,大阪府堺市堺区海山町2-116,,,,,1,,,,,34.588572929927,135.47516928691,
610,E2714000330201,ファミールハイツ堺１番館,大阪府堺市堺区海山町2-116-1,,,,,1,,,,,34.588993,135.474456,
611,E2714000011201,認定こども園　文化保育園,大阪府堺市堺区錦綾町1-3-17,,,,,1,,,,,34.584916376767,135.48566667995,
612,E2714000012201,錦綾小学校,大阪府堺市堺区錦綾町1-6-19,1,,1,1,1,,,,1,34.58599243,135.4860261,
613,E2714000013201,レックスガーデン堺東,大阪府堺市堺区錦綾町3-8-1,,,,,1,,,,,34.584015470664,135.48827674109,
614,E2714000014201,グラン・コート堺九間町,大阪府堺市堺区九間町西2-1-1,,,,,1,,,,,34.586144857674,135.47931878352,
615,E2714000015201,錦小学校,大阪府堺市堺区九間町東3-1-17,1,,1,1,1,,,,1,34.58442305,135.4827866,
616,E2714000016201,殿馬場中学校,大阪府堺市堺区櫛屋町東3-2-1,1,,1,1,1,,,,1,34.57900499,135.4792022,
617,E2714000343201,ロイヤルコート６番館,大阪府堺市堺区熊野町西1-2-15,,,,,1,,,,,34.580116,135.474197,
618,E2714000017201,堺東京海上日動ビル,大阪府堺市堺区熊野町西2-1-3,,,,,1,,,,,34.579680163401,135.47330916632,
619,E2714000344201,アパガーデンコートザビエルパーク,大阪府堺市堺区熊野町西2-2-12,,,,,1,,,,,34.58046,135.473068,
620,E2714000018201,関西電力送配電株式会社南大阪配電営業所,大阪府堺市堺区熊野町東2-2-20,,,,,1,,,,,34.578176398487,135.47595935644,
621,E2714000019201,熊野小学校,大阪府堺市堺区熊野町東5-1-49,1,,1,1,1,,,,1,34.57639464,135.4789961,
622,E2714000020201,三国丘中学校,大阪府堺市堺区向陵西町3-6-15,,,1,1,,,,,1,34.5704542,135.4937074,
623,E2714000021201,市立堺高校,大阪府堺市堺区向陵東町1-10-1,,,1,1,,,,,1,34.5641434,135.4972262,
624,E2714000022201,株式会社サンユー都市開発,大阪府堺市堺区甲斐町西1-1-31,,,,,1,,,,,34.577562921308,135.47248856498,
625,E2714000023201,関西大学堺キャンパス,大阪府堺市堺区香ヶ丘町1-11-1,1,,1,1,1,,,,1,34.590178734053,135.49203238148,
626,E2714000025201,浅香山中学校,大阪府堺市堺区今池町5-3-8,,,,1,,,,,1,34.58423318,135.4943562,
627,E2714000026201,浅香山小学校,大阪府堺市堺区今池町5-4-43,1,,1,1,,,,,1,34.58566419,135.4945096,
628,E2714000027201,市営砂道住宅,大阪府堺市堺区砂道町1-15-20,,,,,1,,,,,34.59150842601,135.48876682006,
629,E2714000029201,メゾンドール堺ザビエル公園,大阪府堺市堺区材木町西2-2-10,,,,,1,,,,,34.583863064983,135.47647642358,
630,E2714000030201,サンメゾン堺,大阪府堺市堺区三宝町1-10-1,,,,,1,,,,,34.590678616276,135.47964482148,
631,E2714000031201,ブランズ堺七道,大阪府堺市堺区三宝町2-150-1,,,,,1,,,,,34.592738938399,135.47833767402,
632,E2714000032201,三宝小学校,大阪府堺市堺区三宝町5-286,1,,1,1,1,,,,1,34.593827917269,135.47174433713,
633,E2714000033201,リーガル堺２,大阪府堺市堺区三宝町5-291,,,,,1,,,,,34.594212228798,135.47293310395,
634,E2714000034201,ヴェルドール堺,大阪府堺市堺区三宝町6-314-4,,,,,1,,,,,34.593901755686,135.47041295888,
635,E2714000331201,山九株式会社　さかい寮,大阪府堺市堺区三宝町6-324-1,,,,,1,,,,,34.594659,135.471055,
636,E2714000336201,アーバンビュー堺プレミアムコート,大阪府堺市堺区山本町1-20-1,,,,,1,,,,,34.586896,135.475497,
637,E2714000035201,アステージ堺,大阪府堺市堺区山本町2-56-1,,,,,1,,,,,34.586924692073,135.47309224191,
638,E2714000036201,クボタ・アルファコート堺,大阪府堺市堺区山本町5-95,,,,,1,,,,,34.588678144663,135.46806309873,
639,E2714000037201,市小学校,大阪府堺市堺区市之町西3-1-14,1,,1,1,1,,,,1,34.58015148,135.47092,
640,E2714000038201,府営堺寺地住宅,大阪府堺市堺区寺地町西2-2-25,,,,,1,,,,,34.574829138261,135.46798856686,
641,E2714000039201,英彰小学校,大阪府堺市堺区寺地町西4-1-1,1,,1,1,1,,,,1,34.57605,135.4659364,
642,E2714000040201,森新ビル,大阪府堺市堺区寺地町東2-2-1,,,,,1,,,,,34.573174488225,135.47113201269,
643,E2714000041201,ファミール堺,大阪府堺市堺区七道東町182-3,,,,,1,,,,,34.592128806485,135.48553048364,
644,E2714000337201,ロイヤルコートビル２,大阪府堺市堺区車之町西1-1-26,,,,,1,,,,,34.582165,135.476898,
645,E2714000042201,ロイヤルコートビル３,大阪府堺市堺区車之町西2-2-32,,,,,1,,,,,34.582466414225,135.47534047957,
646,E2714000338201,ロイヤルコートビル,大阪府堺市堺区車之町西２－２－５,,,,,1,,,,,34.58259,135.475169,
647,E2714000043201,大阪府立泉陽高等学校,大阪府堺市堺区車之町東3-2-1,,,,1,1,,,,1,34.579743878467,135.48020706871,
648,E2714000044201,ニューライフ堺,大阪府堺市堺区住吉橋町1-7-15,,,,,1,,,,,34.578813920171,135.46574741143,
649,E2714000045201,大阪ガス株式会社堺ガスビル,大阪府堺市堺区住吉橋町2-2-19,,,,,1,,,,,34.579655522686,135.46515199302,
650,E2714000374201,府営堺戎島住宅,大阪府堺市堺区戎島町1,,,,,1,,,,,34.583128,135.473104,
651,E2714000047201,プラットプラット,大阪府堺市堺区戎島町3-22-1,,,,,1,,,,,34.582051164171,135.46983012088,
652,E2714000048201,堺駅前アーバンコンフォート,大阪府堺市堺区戎島町3-22-4,,,,,1,,,,,34.583832652982,135.47134212966,
653,E2714000049201,ホテル・アゴーラリージェンシー大阪堺,大阪府堺市堺区戎島町4-45-1,,,,,1,,,,,34.582735621701,135.46769352053,
654,E2714000050201,堺化学本社ビル,大阪府堺市堺区戎島町5-2,,,,,1,,,,,34.58399085159,135.46787081501,
655,E2714000051201,ロイヤルコート５番館,大阪府堺市堺区戎之町西2-2-3,,,,,1,,,,,34.580640079845,135.47361824746,
656,E2714000342201,ロイヤルコート３番館,大阪府堺市堺区戎之町西2-2-5,,,,,1,,,,,34.580738,135.473495,
657,E2714000348201,ロイヤルコート８番館,大阪府堺市堺区戎之町東1-1-7,,,,,1,,,,,34.579982,135.475738,
658,E2714000052201,府公社ＯＰＨ堺戎之町,大阪府堺市堺区戎之町東4-3-2,,,,,1,,,,,34.578067374541,135.4788870601,
659,E2714000053201,堺フェニックスビル,大阪府堺市堺区宿院町西1-1-3,,,,,1,,,,,34.575955090772,135.47096985848,
660,E2714000054201,ＩＷＣ宿院,大阪府堺市堺区宿院町西1-1-6,,,,,1,,,,,34.575734320456,135.4707874558,
661,E2714000055201,さかい利晶の杜,大阪府堺市堺区宿院町西2-1-1,,,,,1,,,,,34.57599747,135.4701826,
662,E2714000056201,男女共同参画センター,大阪府堺市堺区宿院町東4-1-27,,,,,1,,,,,34.57335438,135.4737675,
663,E2714000339201,ポルト堺１,大阪府堺市堺区宿屋町西3-1-2,,,,,1,,,,,34.584829,135.476462,
664,E2714000340201,ポルト堺２,大阪府堺市堺区宿屋町西3-1-27,,,,,1,,,,,34.585041,135.476959,
665,E2714000057201,シティホテル青雲荘,大阪府堺市堺区出島海岸通2-4-14,,,,,1,,,,,34.570554920346,135.45811764685,
666,E2714000058201,府公社湊団地,大阪府堺市堺区出島町2-6,,,,,1,,,,,34.570213303351,135.46074301676,
667,E2714000059201,ＵＲ湊駅前団地４８号棟,大阪府堺市堺区出島町2-7,,,,,1,,,,,34.56965880783,135.46179657996,
668,E2714000375201,堺消防署　訓練棟,大阪府堺市堺区出島浜通1-1,,,,,1,,,,,34.573149,135.458832,
669,E2714000377201,株式会社クボタ　グローバル技術研究所,大阪府堺市堺区匠町1-11,,,,,1,,,,,34.598817,135.426918,
670,E2714000060201,大阪ベイプラザホテル,大阪府堺市堺区少林寺町西1-1-1,,,,,1,,,,,34.573239078884,135.46848187086,
671,E2714000061201,府公社ＯＰＨ堺少林寺,大阪府堺市堺区少林寺町東3-2-8,,,,,1,,,,,34.571247709586,135.47118233614,
672,E2714000062201,少林寺小学校,大阪府堺市堺区少林寺町東4-1-1,1,,1,1,1,,,,1,34.57069609,135.4719182,
673,E2714000063201,ロータスプラザ,大阪府堺市堺区昭和通1-11-1,,,,,1,,,,,34.565945310924,135.46499278244,
674,E2714000334201,株式会社高速オフセット堺工場,大阪府堺市堺区松屋大和川通3-132,,,,,1,,,,,34.599598,135.466263,
675,E2714000064201,三宝水再生センター,大阪府堺市堺区松屋大和川通4-147-1,,,,,1,,,,,34.600861065915,135.46262942514,
676,E2714000333201,山九株式会社　関西支店,大阪府堺市堺区松屋町1-6-7,,,,,1,,,,,34.597763,135.473083,
677,E2714000065201,パールハイツ堺,大阪府堺市堺区新在家町西1-1-10,,,,,1,,,,,34.571796964717,135.46716607551,
678,E2714000066201,ダイワロイネットホテル堺東,大阪府堺市堺区新町5-13,,,,,1,,,,,34.572653910369,135.48289305819,
679,E2714000067201,月州中学校,大阪府堺市堺区神南辺町1-1,1,,1,1,1,,,,1,34.58462725,135.4744489,
680,E2714000068201,メゾンドール堺,大阪府堺市堺区神南辺町2-76-1,,,,,1,,,,,34.585208795514,135.47134268758,
681,E2714000341201,ロイヤルパレス,大阪府堺市堺区神明町西1-1-7,,,,,1,,,,,34.584705,135.478914,
682,E2714000069201,錦西小学校,大阪府堺市堺区神明町西2-1-1,1,,1,1,1,,,,1,34.58544459,135.4783955,
683,E2714000070201,新湊小学校,大阪府堺市堺区西湊町6-6-1,1,,1,1,1,,,,1,34.56625289,135.4608312,
684,E2714000071201,神石小学校,大阪府堺市堺区石津町2-6-1,1,,1,1,,,,,1,34.55486068,135.4669491,
685,E2714000072201,グラン・コート堺石津川公園,大阪府堺市堺区石津町3-7-1,,,,,1,,,,,34.553848773529,135.46521212121,
686,E2714000073201,魚本流空手拳法連盟総本部,大阪府堺市堺区石津町3-7-24,,,,,1,,,,,34.55231000319,135.46501227163,
687,E2714000370201,ナビタスマシナリー株式会社,大阪府堺市堺区石津北町9-1,,,,,1,,,,,34.559598,135.463368,
688,E2714000074201,陵西中学校,大阪府堺市堺区大仙西町2-79,,,,1,1,,,,1,34.56562504,135.4695442,
689,E2714000075201,大仙西小学校,大阪府堺市堺区大仙西町4-129,,,1,1,,,,,1,34.56407453,135.4727608,
690,E2714000076201,旭中学校,大阪府堺市堺区大仙中町11-1,,,,1,,1,,,1,34.56160511,135.4781897,
691,E2714000077201,大仙小学校,大阪府堺市堺区大仙中町16-1,,,1,1,,1,,,1,34.56066408,135.4793448,
692,E2714000078201,フクダ電子近畿販売株式会社　堺営業所,大阪府堺市堺区大町西1-1-25,,,,,1,,,,,34.576720637361,135.47171012224,
693,E2714000079201,スーパーホテル堺マリティマ,大阪府堺市堺区大町西3-4-1,,,,,1,,,,,34.57829658377,135.46863607744,
694,E2714000349201,ホテルアストンプラザ大阪堺,大阪府堺市堺区大町東4-2-30,,,,,1,,,,,34.573948,135.475786,
695,E2714000080201,パーク大浜,大阪府堺市堺区大浜中町3-13-27,,,,,1,,,,,34.577982185525,135.45942859235,
696,E2714000081201,日本製鉄株式会社　大浜寮,大阪府堺市堺区大浜南町1-2-2,,,,,1,,,,,34.573485921471,135.46234622809,
697,E2714000082201,府営堺大浜南町住宅,大阪府堺市堺区大浜南町2-3-1,,,,,1,,,,,34.574210381849,135.46049635739,
698,E2714000083201,大浜中学校,大阪府堺市堺区大浜南町2-4-1,1,,1,1,1,,,,1,34.57400478,135.4613831,
699,E2714000084201,府公社ＯＰＨ大浜,大阪府堺市堺区大浜北町2-6-10,,,,,1,,,,,34.577485259405,135.46259712431,
700,E2714000086202,大浜体育館・武道館,大阪府堺市堺区大浜北町5-7-1,,,,1,1,,,,1,34.58153438,135.4590368,
701,E2714000087201,グッドマン堺,大阪府堺市堺区築港八幡町1-17,,,,,1,,,,,34.595782943981,135.44551661467,
702,E2714000088201,三井不動産ロジスティクスパーク堺（ＭＦＬＰ堺）５階中央車路部,大阪府堺市堺区築港八幡町1-171,,,,,1,,,,,34.595750007368,135.46063741031,
703,E2714000089201,株式会社日新堺ロジスティクスセンター,大阪府堺市堺区築港八幡町138-3,,,,,1,,,,,34.602251969216,135.45056575907,
704,E2714000090201,クリーンセンター臨海工場,大阪府堺市堺区築港八幡町１－７０外,,,,,1,,,,,34.591124956407,135.44225370079,
705,E2714000332201,イオンモール堺鉄砲町,大阪府堺市堺区鉄砲町1,,,,,1,,,,,34.594856,135.481125,
706,E2714000091201,勤労者総合福祉センター,大阪府堺市堺区田出井町2-1,,,,1,,,,,1,34.57861191,135.4964538,
707,E2714000351201,グランド　ポー,大阪府堺市堺区東湊町1-101-1,,,,,1,,,,,34.568497,135.465996,
708,E2714000092201,旧湊小学校,大阪府堺市堺区東湊町2-119-4,1,,,1,,,,,1,34.56785865596,135.46598568399,
709,E2714000093201,レピア堺湊,大阪府堺市堺区東湊町2-150-5,,,,,1,,,,,34.567241188732,135.46523846317,
710,E2714000095201,市営東湊住宅,大阪府堺市堺区東湊町6-353,,,,,1,,,,,34.563501177324,135.46650837652,
711,E2714000097201,安井小学校,大阪府堺市堺区南安井町4-1-5,1,,1,1,1,,,,1,34.57015665,135.47821,
712,E2714000350201,堺市総合福祉会館,大阪府堺市堺区南瓦町２－１,,,,,1,,,,,34.573563,135.479965,
713,E2714000098201,大阪府立三国丘高等学校,大阪府堺市堺区南三国ヶ丘町2-2-36,,,,1,,,,,1,34.573556607836,135.48760745201,
714,E2714000335201,ブランズ・ヴェリテ堺七道,大阪府堺市堺区南島町1-36-13,,,,,1,,,,,34.595876,135.477981,
715,E2714000099201,阪神高速道路　南島換気所,大阪府堺市堺区南島町4-156-1,,,,,1,,,,,34.597969648293,135.47515243763,
716,E2714000100201,市営七道並松東住宅　２棟,大阪府堺市堺区並松町20-1,,,,,1,,,,,34.593656593613,135.48484320037,
717,E2714000102201,三国丘小学校,大阪府堺市堺区北三国ヶ丘町5-1-1,1,,1,1,,,,,1,34.57522516,135.492802,
718,E2714000345201,ホテルサンプラザ堺本館,大阪府堺市堺区竜神橋町1-1-20,,,,,1,,,,,34.578913,135.468024,
719,E2714000376201,シティコート堺駅前ロータリー,大阪府堺市堺区竜神橋町1-4-4,,,,,1,,,,,34.579204,135.467297,
720,E2714000346201,コンフォートホテル堺,大阪府堺市堺区竜神橋町1-5-1,,,,,1,,,,,34.579628,135.466812,
721,E2714000103201,エル・アバンダント堺,大阪府堺市堺区竜神橋町2-3-9,,,,,1,,,,,34.580771768377,135.46564479089,
722,E2714000104201,日鉄テックスエンジ株式会社　阪神支店,大阪府堺市堺区緑町4-156-1,,,,,1,,,,,34.598860164712,135.4628184517,
723,E2714000105201,家原大池体育館,大阪府堺市西区家原寺町1-18-1,,,,1,,,,,1,34.53682608,135.4724694,
724,E2714000106201,家原寺小学校,大阪府堺市西区家原寺町1-7-1,1,1,1,1,,,,,1,34.5374783,135.4760344,
725,E2714000107201,大阪府立鳳高等学校,大阪府堺市西区原田150,,,,1,,,,,1,34.517813875048,135.4588368468,
726,E2714000108201,福泉中学校,大阪府堺市西区山田2-55,1,,1,1,,,,,1,34.50884057,135.4644778,
727,E2714000109201,福泉上小学校,大阪府堺市西区上127-1,1,,1,1,,,,,1,34.52612565,135.4682669,
728,E2714000110201,大阪府立堺上高等学校,大阪府堺市西区上61,,,,1,,,,,1,34.523921720387,135.46911074319,
729,E2714000111201,上野芝中学校,大阪府堺市西区上野芝向ヶ丘町5-25-1,,,,1,,,,,1,34.54126934,135.4803891,
730,E2714000112201,向丘小学校,大阪府堺市西区上野芝向ヶ丘町6-7-1,1,,1,1,,,,,1,34.53962177,135.4785784,
731,E2714000113201,津久野中学校,大阪府堺市西区神野町2-16-1,,,,1,,,,,1,34.54171778,135.4752616,
732,E2714000114201,上野芝小学校,大阪府堺市西区神野町2-25-1,1,,1,1,,,,,1,34.5443093,135.4757214,
733,E2714000115201,府公社諏訪の森団地　１号棟　２号棟,大阪府堺市西区諏訪森町西2-114,,,,,1,,,,,34.551433655862,135.44719276101,
734,E2714000122201,福泉東小学校,大阪府堺市西区草部946-1,1,,1,1,,1,,,1,34.51923693,135.4731867,
735,E2714000123201,大阪府立福泉高等学校,大阪府堺市西区太平寺323,,,,1,,,,,1,34.504699150857,135.48012422786,
736,E2714000126201,津久野小学校,大阪府堺市西区津久野町3-14-11,1,,1,1,,,,,1,34.54509367,135.4708726,
737,E2714000128201,福泉小学校,大阪府堺市西区菱木2-2186-1,1,,1,1,,,,,1,34.51452945,135.4711739,
738,E2714000129201,エテルノテレサ浜寺元町,大阪府堺市西区浜寺元町1-120-1,,,,,1,,,,,34.543953004708,135.45415364466,
739,E2714000130201,株式会社スズキ自販近畿　堺社宅,大阪府堺市西区浜寺元町1-95-2,,,,,1,,,,,34.54319696962,135.45319994598,
740,E2714000367201,ダイアパレス浜寺イースト,大阪府堺市西区浜寺元町5-525-1,,,,,1,,,,,34.540807,135.450261,
741,E2714000368201,ベルク浜寺公園,大阪府堺市西区浜寺元町5-563-1,,,,,1,,,,,34.540034,135.449806,
742,E2714000364201,エスワイビル浜寺荘,大阪府堺市西区浜寺公園町1-14-5,,,,,1,,,,,34.543533,135.444919,
743,E2714000131201,レーベン浜寺公園,大阪府堺市西区浜寺公園町1-15-1,,,,,1,,,,,34.54322745419,135.44509968197,
744,E2714000365201,藤和浜寺公園ホームズ駅前通り,大阪府堺市西区浜寺公園町2-137-2,,,,,1,,,,,34.541286,135.443741,
745,E2714000132201,デュオヒルズ浜寺公園,大阪府堺市西区浜寺公園町3-262-1,,,,,1,,,,,34.539331334356,135.44213018465,
746,E2714000366201,ローレルコート浜寺公園,大阪府堺市西区浜寺公園町3-311,,,,,1,,,,,34.539274,135.441325,
747,E2714000133201,浜寺昭和小学校,大阪府堺市西区浜寺昭和町2-282,1,,1,1,,,,,1,34.54255962,135.4488211,
748,E2714000362201,トヨタカローラ南海株式会社本社駐車場,大阪府堺市西区浜寺諏訪森町西1-7,,,,,1,,,,,34.552194,135.447752,
749,E2714000134201,ダイアパレス浜寺諏訪森,大阪府堺市西区浜寺諏訪森町西2-138-1,,,,,1,,,,,34.550326410065,135.44688332374,
750,E2714000363201,マインハイツ諏訪森,大阪府堺市西区浜寺諏訪森町西3-287-1,,,,,1,,,,,34.547793,135.447253,
751,E2714000135201,ダイアパレス諏訪森ガーデンパーク,大阪府堺市西区浜寺諏訪森町西4-308-1,,,,,1,,,,,34.547707938193,135.44632320097,
752,E2714000136201,岬工業株式会社,大阪府堺市西区浜寺諏訪森町西4-380-1,,,,,1,,,,,34.546658172249,135.44671614702,
753,E2714000137201,浜寺小学校,大阪府堺市西区浜寺諏訪森町東2-163,1,,1,1,1,,,,1,34.54952771,135.4512779,
754,E2714000138201,特別養護老人ホーム　アリオン,大阪府堺市西区浜寺石津町西1-2-7,,,,,1,,,,1,34.562348169471,135.45463686113,
755,E2714000355201,ケアライフ・メディカルサプライ株式会社本社ビル,大阪府堺市西区浜寺石津町西2-1-6,,,,,1,,,,,34.561367,135.454285,
756,E2714000356201,住宅型有料老人ホーム　宝の看護サカイ,大阪府堺市西区浜寺石津町西2-6-17,,,,,1,,,,,34.561469,135.453165,
757,E2714000357201,堺サンホテル石津川,大阪府堺市西区浜寺石津町西3-4-25,,,,,1,,,,,34.559307,135.452408,
758,E2714000353201,グランコート浜寺北,大阪府堺市西区浜寺石津町中1-4-1,,,,,1,,,,,34.56216,135.458832,
759,E2714000140201,コスモ浜寺石津町,大阪府堺市西区浜寺石津町中1-7-38,,,,,1,,,,,34.562717589511,135.45733722112,
760,E2714000354201,アクティブ浜寺石津,大阪府堺市西区浜寺石津町中1-8-38,,,,,1,,,,,34.563519,135.456482,
761,E2714000141201,ライオンズガーデン浜寺,大阪府堺市西区浜寺石津町中2-1-37,,,,,1,,,,,34.559296113539,135.45759574164,
762,E2714000371201,シャルマンフジ浜寺ガーデンオアシス,大阪府堺市西区浜寺石津町中2-1-51,,,,,1,,,,,34.560066,135.458557,
763,E2714000142201,浜寺石津小学校,大阪府堺市西区浜寺石津町中2-3-28,1,,1,1,1,,,,1,34.55959364,135.4558834,
764,E2714000144201,市営中石津住宅　１・２・３・４・５棟,大阪府堺市西区浜寺石津町中5-12,,,,,1,,,,,34.55468587237,135.45125360346,
765,E2714000372201,カサグランデス浜寺北,大阪府堺市西区浜寺石津町東1-2-32,,,,,1,,,,,34.560116,135.459137,
766,E2714000145201,サービス付き高齢者向け住宅ペガサスロイヤルリゾート石津,大阪府堺市西区浜寺石津町東1-3-31,,,,,1,,,,,34.560006450431,135.46084591002,
767,E2714000373201,ふぁみーゆ浜寺,大阪府堺市西区浜寺石津町東3-1-15,,,,,1,,,,,34.55761,135.458293,
768,E2714000326201,市営石津鉄筋住宅,大阪府堺市西区浜寺石津町東3-10-5,,,,,1,,,,,34.555221207774,135.45965040741,
769,E2714000147201,石津川保育園,大阪府堺市西区浜寺石津町東3-6-25,,,,,1,,,,,34.556797285248,135.45878424982,
770,E2714000358201,ジョイフルハイツ２,大阪府堺市西区浜寺石津町東4-5-39,,,,,1,,,,,34.555127,135.457236,
771,E2714000359201,ジョイフルハイツ,大阪府堺市西区浜寺石津町東4-5-41,,,,,1,,,,,34.555233,135.456904,
772,E2714000360201,ラ・メゾン坂口,大阪府堺市西区浜寺石津町東4-5-46,,,,,1,,,,,34.555397,135.457011,
773,E2714000361201,朝日プラザ浜寺,大阪府堺市西区浜寺石津町東4-6-1,,,,,1,,,,,34.55526,135.458352,
774,E2714000149201,ルイシャトレ諏訪ノ森,大阪府堺市西区浜寺石津町東5-12-13,,,,,1,,,,,34.552296201492,135.4553492148,
775,E2714000369201,ハイネス諏訪森,大阪府堺市西区浜寺船尾町西1-153-2,,,,,1,,,,,34.551973,135.455874,
776,E2714000150201,浜寺中学校,大阪府堺市西区浜寺船尾町西5-60,1,,1,1,,1,,,1,34.54338103,135.458033,
777,E2714000151201,浜寺東小学校,大阪府堺市西区浜寺船尾町東1-101,1,,1,1,1,,,,1,34.55113121,135.4581923,
778,E2714000152201,介護療養型老人保健施設　ペルセウス,大阪府堺市西区浜寺船尾町東3-447,,,,,1,,,,,34.547478915271,135.46234451294,
779,E2714000153201,浜寺南中学校,大阪府堺市西区浜寺南町1-55,,,1,1,,,,,1,34.53599782,135.4487725,
780,E2722500037201,羽衣国際大学,大阪府堺市西区浜寺南町1-89-1,,,,,1,,,,,34.534348672054,135.44800221451,
781,E2714000154201,鳳中学校,大阪府堺市西区鳳西町1-159-1,,,1,1,,,,,1,34.52849118,135.4544474,
782,E2714000155201,鳳小学校,大阪府堺市西区鳳中町2-22,1,,1,1,,,,,1,34.53429748,135.4588862,
783,E2714000157201,鳳南小学校,大阪府堺市西区鳳南町1-7,1,,1,1,,,,,1,34.52831836,135.4575319,
784,E2714000158201,平岡小学校,大阪府堺市西区堀上緑町1-6-1,1,,1,1,,,,,1,34.53466685,135.4773919,
785,E2714000159201,宮園小学校,大阪府堺市中区宮園町4-1,,,1,1,,,,,1,34.52604727,135.4952427,
786,E2714000165201,東百舌鳥中学校,大阪府堺市中区新家町260,,,,1,,,,,1,34.54033982,135.5103103,
787,E2714000166201,東深井小学校,大阪府堺市中区深井水池町3214,,,1,1,,,,,1,34.53109277,135.5009243,
788,E2714000167201,教育文化センター,大阪府堺市中区深井清水町1426,,,,1,,,,,1,34.53387059,135.4914461,
789,E2714000168201,深井中学校,大阪府堺市中区深井沢町2470-1,,,,1,,,,,1,34.52784182,135.5007686,
790,E2714000169201,深井小学校,大阪府堺市中区深井中町1409,,,1,1,,,,,1,34.5352369,135.4916876,
791,E2714000171201,深井中央中学校,大阪府堺市中区深井北町220-1,,,,1,,,,,1,34.54034816,135.4953513,
792,E2714000172201,深井西小学校,大阪府堺市中区深井北町926,,,1,1,,,,,1,34.53914816,135.4835912,
793,E2714000173201,深阪小学校,大阪府堺市中区深阪5-15-1,1,1,1,1,,,,,1,34.50929403,135.5080016,
794,E2714000175201,西陶器小学校,大阪府堺市中区田園570,,1,1,1,,,,,1,34.51020319,135.5116147,
795,E2714000176201,土師小学校,大阪府堺市中区土師町3-35-1,,,1,1,,,,,1,34.5385131,135.4991055,
796,E2714000177201,東百舌鳥小学校,大阪府堺市中区土塔町139,,,1,1,,,,,1,34.5385804,135.5084043,
797,E2714000179201,大阪府立東百舌鳥高等学校,大阪府堺市中区土塔町2377-5,,,,1,,,,,1,34.53521152504,135.51253963208,
798,E2714000185201,泉ヶ丘東中学校,大阪府堺市中区陶器北184,,,1,1,,,,,1,34.51740874,135.5155454,
799,E2714000186201,東陶器小学校,大阪府堺市中区陶器北2556,,1,1,1,,,,,1,34.518262,135.5218,
800,E2714000188201,八田荘小学校,大阪府堺市中区八田寺町231,1,1,1,1,,,,,1,34.52729608,135.4804428,
801,E2714000189201,原池公園体育館,大阪府堺市中区八田寺町320,,,,1,,,,,1,34.51964322,135.4932833,
802,E2714000190201,八田荘中学校,大阪府堺市中区八田北町580-11,,,,1,,1,,,1,34.52616189,135.4807348,
803,E2714000192201,福田小学校,大阪府堺市中区福田727,,,1,1,,,,,1,34.52444903,135.5185499,
804,E2714000193201,平井中学校,大阪府堺市中区平井346,,,,1,,,,,1,34.5172803,135.4977193,
805,E2714000195201,久世小学校,大阪府堺市中区平井999,1,1,1,1,,,,,1,34.52071731,135.4955926,
806,E2714000196201,八田荘西小学校,大阪府堺市中区毛穴町268-2,1,1,1,1,,1,,,1,34.52715661,135.4757576,
807,E2714000197201,八下西小学校,大阪府堺市東区引野町1-110,,,1,1,,,,,1,34.55075925,135.5226933,
808,E2714000199201,登美丘中学校,大阪府堺市東区高松408,,,,1,,1,,,1,34.52630331,135.5313787,
809,E2714000200201,登美丘東小学校,大阪府堺市東区丈六224,1,,1,1,,,,,1,34.52705812,135.5400267,
810,E2714000202201,大阪府立登美丘高等学校,大阪府堺市東区西野51,,,,1,,,,,1,34.518932470758,135.5400273075,
811,E2714000204201,登美丘南小学校,大阪府堺市東区草尾596,1,1,1,1,,,,,1,34.51819459,135.5363941,
812,E2714000205201,登美丘西小学校,大阪府堺市東区大美野135,,,1,1,,,,,1,34.52673715,135.5284511,
813,E2714000206201,野田中学校,大阪府堺市東区南野田101-1,,,,1,,,,,1,34.52120511,135.5505076,
814,E2714000210201,日置荘小学校,大阪府堺市東区日置荘西町2-46-1,,,1,1,,,,,1,34.54161374,135.5340071,
815,E2714000211201,日置荘西小学校,大阪府堺市東区日置荘西町6-9-1,,,1,1,,,,,1,34.53831837,135.5248108,
816,E2714000214201,日置荘中学校,大阪府堺市東区日置荘北町3-11-28,,,,1,,,,,1,34.5411245,135.5353477,
817,E2714000215201,白鷺小学校,大阪府堺市東区白鷺町2-8-1,,,1,1,,1,,,1,34.54533127,135.5152512,
818,E2714000217201,南八下中学校,大阪府堺市東区菩提町2-58,,,,1,,,,,1,34.55063964,135.5329779,
819,E2714000219201,南八下小学校,大阪府堺市東区菩提町5-228,1,,1,1,,,,,1,34.54721421,135.5377815,
820,E2714000325201,東文化会館,大阪府堺市東区北野田1084-136,,,1,1,,,,,1,34.523399095232,135.54148525529,
821,E2714000220201,野田小学校,大阪府堺市東区北野田897-2,1,,1,1,,,,,1,34.52406191,135.5511693,
822,E2714000221201,初芝体育館,大阪府堺市東区野尻町221-4,,,,1,,,,,1,34.54039656,135.5231309,
823,E2714000224201,釜室自治会館,大阪府堺市南区釜室685-7,,1,,,,,,,,34.480770093477,135.51899867253,
824,E2714000226201,美木多中学校,大阪府堺市南区鴨谷台1-47-1,,,,1,,,,,1,34.4725779,135.483341,
825,E2714000227201,美木多小学校,大阪府堺市南区鴨谷台1-48-1,1,1,1,1,,,,,1,34.47438496,135.4840716,
826,E2714000228201,鴨谷体育館,大阪府堺市南区鴨谷台2-4-1,,,,1,,,,,1,34.47408796,135.4786921,
827,E2714000230201,宮山台中学校,大阪府堺市南区宮山台1-1-1,,,,1,,,,,1,34.49987367,135.5037887,
828,E2714000231201,宮山台小学校,大阪府堺市南区宮山台2-2-1,,1,1,1,,,,,1,34.50424256,135.4992057,
829,E2714000233201,原山台中学校,大阪府堺市南区原山台4-2-1,,,,1,,,,,1,34.48227886,135.4942876,
830,E2714000234201,原山ひかり小学校,大阪府堺市南区原山台4-3-1,1,,1,1,,,,,1,34.47939496639,135.49371123798,
831,E2714000235201,御池台小学校,大阪府堺市南区御池台2-3-1,,,1,1,,,,,1,34.46543114,135.5031916,
832,E2714000239201,大阪健康福祉短期大学　堺・泉ヶ丘キャンパス,大阪府堺市南区高倉台1-2-1,,1,1,1,,,,,1,34.496189135827,135.51918185012,
833,E2714000240201,泉北高倉小学校,大阪府堺市南区高倉台3-5-1,,1,1,1,,,,,1,34.49365528,135.5256512,
834,E2714000241201,三原台中学校,大阪府堺市南区三原台1-12-1,,,,1,,,,,1,34.49995275,135.5231745,
835,E2714000242201,三原台小学校,大阪府堺市南区三原台3-2-1,,1,1,1,,,,,1,34.50150038,135.51979,
836,E2714000244201,若松台小学校,大阪府堺市南区若松台1-3-1,1,1,1,1,,,,,1,34.49160629,135.5067496,
837,E2714000246201,大阪府立泉北高等学校,大阪府堺市南区若松台3-2-2,,,,1,,,,,1,34.490379219633,135.50138770959,
838,E2714000245201,若松台中学校,大阪府堺市南区若松台3-34-1,,,,1,,,,,1,34.48682236,135.5129449,
839,E2714000247201,城山台小学校,大阪府堺市南区城山台1-20-1,,,1,1,,,,,1,34.46833433,135.4879812,
840,E2714000248201,大阪府立成美高等学校,大阪府堺市南区城山台4-1-1,,,,1,,,,,1,34.463277382646,135.48738082174,
841,E2714000249201,新檜尾台小学校,大阪府堺市南区新檜尾台3-7-1,,,1,1,,,,,1,34.47984427,135.4762824,
842,E2714000250201,大阪府立堺東高等学校,大阪府堺市南区晴美台1-1-2,,,,1,,,,,1,34.499272130858,135.53403323169,
843,E2714000251201,はるみ小学校,大阪府堺市南区晴美台3-3-1,,,1,1,,,,,1,34.49030695,135.5309572,
844,E2714000252201,晴美台中学校,大阪府堺市南区晴美台3-8-1,,,,1,,,,,1,34.48648459,135.5281471,
845,E2714000253201,赤坂台中学校,大阪府堺市南区赤坂台2-1-1,,,,1,,,,,1,34.48461331,135.4771501,
846,E2714000254201,赤坂台小学校,大阪府堺市南区赤坂台2-2-1,,1,1,1,,,,,1,34.48648636,135.4760047,
847,E2714000255201,竹城台東小学校,大阪府堺市南区竹城台1-10-1,,,1,1,,,,,1,34.50315958,135.5110506,
848,E2714000256201,竹城台小学校,大阪府堺市南区竹城台3-2-1,1,1,1,1,,,,,1,34.4959224,135.5036369,
849,E2714000257201,茶山台小学校,大阪府堺市南区茶山台2-5-1,,,1,1,,,,,1,34.49117054,135.5171701,
850,E2714000260201,庭代台中学校,大阪府堺市南区庭代台2-19-1,,,,1,,,,,1,34.46857031,135.5003829,
851,E2714000262201,庭代台小学校,大阪府堺市南区庭代台3-12-1,,,1,1,,,,,1,34.47424992,135.499985,
852,E2714000263201,栂文化会館,大阪府堺市南区桃山台2-1-2,,,,1,,,,,1,34.48581039,135.4892928,
853,E2714000264201,桃山台小学校,大阪府堺市南区桃山台2-6-1,1,,1,1,,,,,1,34.48930897,135.4875968,
854,E2714000265201,福泉南中学校,大阪府堺市南区桃山台3-7-1,,,,1,,,,,1,34.49680063,135.4816538,
855,E2714000267201,大阪府立堺西高等学校,大阪府堺市南区桃山台4-16,,,,1,,,,,1,34.495037002182,135.4845503821,
856,E2714000266201,福泉中央小学校,大阪府堺市南区桃山台4-17-1,1,1,1,1,,,,,1,34.49693454,135.4833419,
857,E2714000269201,上神谷小学校,大阪府堺市南区片蔵1425,1,1,1,1,,,,,1,34.48002133,135.5120602,
858,E2714000274201,槇塚台小学校,大阪府堺市南区槇塚台3-39-1,,1,1,1,,,,,1,34.48234713,135.5277502,
859,E2714000275201,さつき野中学校,大阪府堺市美原区さつき野西2-6-1,,,,1,,,,,1,34.53218055,135.5802175,
860,E2714000276201,さつき野小学校,大阪府堺市美原区さつき野東1-6-1,,1,1,1,,,,,1,34.5324226,135.5817033,
861,E2714000277201,黒山小学校,大阪府堺市美原区阿弥93,1,,1,1,,,,,1,34.53552173,135.556112,
862,E2714000278201,美原中学校,大阪府堺市美原区小平尾390,,,,1,,,,,1,34.53884563,135.5629639,
863,E2714000281201,みはら大地幼稚園,大阪府堺市美原区菅生587,1,,1,1,,,,,1,34.52319045,135.5704353,
864,E2714000283201,美原体育館,大阪府堺市美原区多治井878-1,,,,1,,,,,1,34.54276501,135.5669689,
865,E2714000284201,美原西小学校,大阪府堺市美原区太井548,1,,1,1,,,,,1,34.53860566,135.553068,
866,E2714000285201,美原西中学校,大阪府堺市美原区大饗102-2,,,,1,,,,,1,34.54256382,135.5474759,
867,E2714000286201,八上小学校,大阪府堺市美原区大饗117-1,1,,1,1,,,,,1,34.54314681,135.5457195,
868,E2714000287201,美原北小学校,大阪府堺市美原区大保19,1,,1,1,,,,,1,34.54930529,135.5611745,
869,E2714000291201,平尾小学校,大阪府堺市美原区平尾360,1,1,1,1,,,,,1,34.53297334,135.5665391,
870,E2714000293201,金岡南小学校,大阪府堺市北区金岡町1182-1,,,1,1,,,,,1,34.55558587,135.5112815,
871,E2714000294201,金岡小学校,大阪府堺市北区金岡町1254,,,1,1,,,,,1,34.55874302,135.5151693,
872,E2714000295201,金岡南中学校,大阪府堺市北区金岡町2469,,,1,1,,,,,1,34.55557805,135.5214586,
873,E2714000296201,大阪府立金岡高等学校,大阪府堺市北区金岡町2651,,,,1,,,,,1,34.554170816797,135.52713538678,
874,E2714000298201,新金岡小学校,大阪府堺市北区新金岡町1-4-1,,,1,1,,1,,,1,34.56967897,135.5111695,
875,E2714000299201,金岡北中学校,大阪府堺市北区新金岡町1-5-1,,,,1,,1,,,1,34.57083244,135.5113586,
876,E2714000300201,光竜寺小学校,大阪府堺市北区新金岡町3-7-1,,,1,1,,1,,,1,34.57244489,135.5214473,
877,E2714000301201,新金岡東小学校,大阪府堺市北区新金岡町4-1-9,,,1,1,,1,,,1,34.56846577,135.5158975,
878,E2714000302201,大泉学園（大泉小学校・中学校）,大阪府堺市北区新金岡町4-9-1,,,1,1,,1,,,1,34.56701542,135.522697,
879,E2714000303201,五箇荘中学校,大阪府堺市北区新堀町1-85-2,,,,1,,,,,1,34.57716973,135.5096555,
880,E2714000304201,五箇荘小学校,大阪府堺市北区新堀町2-58,1,,1,1,,,,,1,34.57753949,135.5137112,
881,E2714000305201,東浅香山小学校,大阪府堺市北区大豆塚町1-60,1,,1,1,,,,,1,34.58019647,135.5044948,
882,E2714000306201,北八下小学校,大阪府堺市北区中村町250,1,,1,1,,,,,1,34.56544933,135.5365494,
883,E2714000307201,八下中学校,大阪府堺市北区中村町977-20,,,,1,,1,,,1,34.56039302,135.5324984,
884,E2714000308201,中百舌鳥小学校,大阪府堺市北区中百舌鳥町6-1033-2,,,1,1,,1,,,1,34.55064958,135.5070743,
885,E2714000309201,中百舌鳥中学校,大阪府堺市北区中百舌鳥町6-1034-11,,,,1,,1,,,1,34.5493716,135.5093118,
886,E2714000310201,金岡公園体育館,大阪府堺市北区長曽根町1179-18,,,,1,,,,,1,34.57072177,135.506351,
887,E2714000311201,長尾中学校,大阪府堺市北区長曽根町1179-5,,,1,1,,,,,1,34.57377577,135.5025629,
888,E2714000314201,東三国丘小学校,大阪府堺市北区東三国ヶ丘町2-2-1,,,1,1,,,,,1,34.57070132,135.4976348,
889,E2714000315201,新浅香山小学校,大阪府堺市北区東浅香山町3-31-4,1,,1,1,,,,,1,34.58546053,135.5091616,
890,E2714000320201,陵南中学校,大阪府堺市北区百舌鳥西之町1-75,,,,1,,,,,1,34.54995511,135.491474,
891,E2714000321201,西百舌鳥小学校,大阪府堺市北区百舌鳥西之町1-82,1,1,1,1,,,,,1,34.55059618,135.4903089,
892,E2714000322201,百舌鳥小学校,大阪府堺市北区百舌鳥梅町2-498,,,1,1,,,,,1,34.55089578,135.495586,
893,E2714000324201,五箇荘東小学校,大阪府堺市北区北花田町2-203,1,,1,1,,,,,1,34.58059911,135.5194918,
894,E2722900002201,四條畷中学校,大阪府四條畷市岡山東5-2-10,1,1,,1,,1,1,,1,34.743651825284,135.65271082384,
895,E2722900004201,忍ヶ丘小学校,大阪府四條畷市岡山東5-2-40,1,1,,1,,1,1,,1,34.744095886476,135.65363593,
896,E2722900006201,四條畷高等学校,大阪府四條畷市雁屋北町1-1,1,1,,1,,1,1,,1,34.73529304376,135.63612729061,
897,E2722900010201,岡部小学校,大阪府四條畷市砂1-7-26,1,1,,1,,1,1,,1,34.744593166643,135.63518829025,
898,E2722900013201,四條畷西中学校,大阪府四條畷市西中野1-4-35,1,1,,1,,1,1,,1,34.740923415149,135.63320829881,
899,E2722900016201,大阪電気通信大学,大阪府四條畷市大字清滝1130-70,1,1,,1,,1,1,,,34.743679907716,135.66005734612,
900,E2722900019201,四條畷小学校,大阪府四條畷市中野872,1,1,,1,,1,1,,1,34.73963289307,135.64547671476,
901,E2722900020201,四條畷南小学校,大阪府四條畷市中野新町11-38,1,1,,1,,1,1,,1,34.738231123664,135.63944523857,
902,E2722900022201,田原小学校,大阪府四條畷市田原台4-2-1,1,1,,1,,1,1,,1,34.727450518386,135.69350553863,
903,E2722900024201,北谷公園,大阪府四條畷市田原台８地内,1,1,,1,,1,1,,,34.71832953003,135.6898514569,
904,E2722900025201,旧四條畷南中学校,大阪府四條畷市南野5-5-1,1,,,1,,1,1,,1,34.736766644812,135.64515847582,
905,E2722900027201,旧四條畷東小学校,大阪府四條畷市南野6-1-25,1,,,1,,1,1,,1,34.737092863085,135.64926762004,
906,E2722900029201,くすのき小学校,大阪府四條畷市二丁通町18-1,1,1,,1,,1,1,,1,34.735461703109,135.62791388663,
907,E2720900002201,芦間高等学校,大阪府守口市外島町1-43,1,,,,,,1,,1,34.741526065026,135.56402047867,
908,E2720900003201,梶中学校,大阪府守口市梶町4-28-5,1,,,,,,1,,1,34.750653268359,135.59025156154,
909,E2720900004201,梶小学校,大阪府守口市梶町4-79-12,1,,,,,,1,,1,34.751179084877,135.58876769627,
910,E2720900042201,錦コミュニティセンター,大阪府守口市菊水通4-20-10,1,,,,,,1,,1,34.724886,135.57888,
911,E2720900006201,大阪電気通信大学高等学校,大阪府守口市橋波西之町1-5-18,1,,,,,,1,,1,34.737515271668,135.57115839289,
912,E2720900007201,児童センター,大阪府守口市金田町1-4-1,1,,,,,,1,,1,34.752669386,135.5891919485,
913,E2720900008201,金田小学校,大阪府守口市金田町3-11-11,1,,,,,,1,,1,34.756590983196,135.59513750736,
914,E2720900009201,大阪国際中学校高等学校体育館,大阪府守口市高瀬町4-1-19,1,,,,,,1,,1,34.726108,135.565606,
915,E2720900010201,庭窪小学校,大阪府守口市佐太中町1-6-10,1,,,,,,1,,1,34.756094810819,135.58071274258,
916,E2720900011201,庭窪中学校,大阪府守口市佐太中町4-1-7,1,,,,,,1,,1,34.756636839813,135.58562943963,
917,E2720900012201,佐太小学校,大阪府守口市佐太中町6-11-51,1,,,,,,1,,1,34.761571156257,135.58756146362,
918,E2720900013201,錦小学校,大阪府守口市寺方錦通2-8-45,1,,,,,,1,,1,34.722718982678,135.57649215314,
919,E2720900014201,寺方南小学校,大阪府守口市寺方元町4-1-45,1,,,,,,1,,1,34.723659,135.570063,
920,E2720900016201,さつき学園,大阪府守口市春日町13-26,1,,,,,,1,,1,34.73133084,135.5624978,
921,E2720900017201,樟風中学校,大阪府守口市西郷通3-14-60,1,,,,,,1,,1,34.728286892182,135.57340058569,
922,E2720900019201,よつば小学校,大阪府守口市大久保町2-17-26,1,,,,,,1,,1,34.750653,135.599375,
923,E2720900020201,大久保中学校,大阪府守口市大久保町4-23-46,1,,,,,,1,,1,34.754520662763,135.59932957493,
924,E2720900044201,東部エリアコミュニティセンター　よつば未来体育室,大阪府守口市大久保町5-3-48,1,,,,,,1,,1,34.751684,135.601407,
925,E2720900018201,東部エリアコミュニティセンター,大阪府守口市大久保町１南27-6,1,,,,,,1,,1,34.751098,135.596052,
926,E2720900024201,第一中学校,大阪府守口市竹町12-29,1,,,,,,1,,1,34.7378693,135.5609626,
927,E2720900025201,さくら小学校,大阪府守口市東光町2-1-4,1,,,,,,1,,1,34.73140033649,135.56806217969,
928,E2720900026201,藤田小学校,大阪府守口市藤田町1-58-18,1,,,,,,1,,1,34.749489,135.594433,
929,E2720900028201,錦中学校,大阪府守口市南寺方東通4-1-31,1,,,,,,1,,1,34.721211052264,135.57676037404,
930,E2720900030201,八雲中学校,大阪府守口市八雲西町3-5-21,1,,,,,,1,,1,34.747756872076,135.5647478551,
931,E2720900031201,八雲小学校,大阪府守口市八雲西町4-31-31,1,,,,,,1,,1,34.750066642062,135.56740344717,
932,E2720900032201,守口東高等学校,大阪府守口市八雲中町2-1-32,1,,,,,,1,,1,34.74479037,135.5685785,
933,E2720900033201,八雲東小学校,大阪府守口市八雲東町2-77-7,1,,,,,,1,,1,34.747374446622,135.57747710345,
934,E2720900035201,守口小学校,大阪府守口市八島町13-40,1,,,,,,1,,1,34.741085686771,135.56531911522,
935,E2720900036201,西部コミュニティセンター,大阪府守口市文園町8-8,1,,,,,,1,,1,34.72977561,135.5569315,
936,E2721700002201,松原商工会議所,大阪府松原市阿保1-2-30,1,,,1,,,,,,34.57711789,135.5514987,
937,E2721700004201,阿保公民館,大阪府松原市阿保4-210-1,1,,,1,,,,,,34.58098662,135.5563834,
938,E2721700010201,岡新町公民館,大阪府松原市岡2-10-24,1,,,1,,,,,,34.56397509,135.5570147,
939,E2721700014201,岡公民館,大阪府松原市岡5-4-33,1,,,1,,,,,,34.56110316,135.5545618,
940,E2721700016201,松原市民運動広場,大阪府松原市岡7-212,1,,,1,,,,,,34.56299855,135.5493434,
941,E2721700019201,河合公民館,大阪府松原市河合3-8-3,1,,,1,,,,,,34.567414,135.544112,
942,E2721700025201,三宅東公園,大阪府松原市三宅東3,1,,,1,,,,,,34.59158443,135.560201,
943,E2721700028201,上田第３町会公民館,大阪府松原市上田3-2-14,1,,,1,,,,,,34.57450178,135.5554147,
944,E2721700038201,西野々会館,大阪府松原市西野々2-8-23,1,,,,,,,,,34.5771182,135.5658789,
945,E2721700041201,丹南公民館,大阪府松原市丹南3-6-11,1,,,,,,,,,34.55787231,135.5558798,
946,E2721700042201,丹南町会総合会館,大阪府松原市丹南4-113-1,1,,,1,,,,,,34.5557361,135.559407,
947,E2721700046201,天美西運動広場,大阪府松原市天美西4-230-1,,,,1,,,,,,34.59027725,135.5253752,
948,E2721700047201,天美西公園,大阪府松原市天美西5,,,,1,,,,,,34.58757893,135.5259117,
949,E2721700054201,池内総合会館,大阪府松原市天美東8-2-23,,,,1,,,,,,34.58711815,135.5338667,
950,E2721700055201,池内記念会館,大阪府松原市天美東8-6-6,,,,1,,,,,,34.58771877,135.5327617,
951,E2721700060201,堀公民館,大阪府松原市天美南4-8-28,1,,,,,,,,,34.58252486,135.5356167,
952,E2721700061201,松原中央公園,大阪府松原市田井城１地内,1,,,1,,,,,,34.57863101,135.549043,
953,E2721700066201,新栄公民館,大阪府松原市東新町1-38-8,1,,,1,,,,,,34.58241153,135.5413866,
954,E2721700067201,新栄連合会館,大阪府松原市東新町2-168-2,1,,,1,,,,,,34.5806928,135.5426389,
955,E2721700069201,東代公民館,大阪府松原市東新町5-10-23,1,,,1,,,,,,34.57359599,135.5422367,
956,E2721700074201,新町南公園,大阪府松原市南新町３地内,1,,,1,,,,,,34.57176705,135.535927,
957,E2721700078201,別所公民館,大阪府松原市別所6-5-12,,,,1,,,,,,34.58882858,135.5642113,
958,E2721700079201,向井公民館,大阪府松原市北新町1-5-16,1,,,1,,,,,,34.57839929,135.5374957,
959,E2721700081201,高木町公民館,大阪府松原市北新町5-2-24,1,,,,,,,,,34.5811689,135.5319509,
960,E2721700080201,北新町大池公園,大阪府松原市北新町３地内,1,,,1,,,,,,34.58123246,135.5330249,
961,E2721700082201,立部公民館,大阪府松原市立部2-213-2,1,,,,,,,,,34.56379462,135.5632609,
962,E2721700083201,大塚運動広場,大阪府松原市立部3-399-1,1,,,1,,,,,,34.56700964,135.567561,
963,E2721500001201,市立宇谷小学校,大阪府寝屋川市宇谷町8-1,1,1,,1,,,,,1,34.766333256481,135.64542584061,
964,E2721500002201,市立南小学校,大阪府寝屋川市下木田町16-15,1,,,1,,,,,1,34.749369670422,135.62294487381,
965,E2721500003201,市立市民体育館,大阪府寝屋川市下木田町16-16,1,,,1,,,,,1,34.748294045419,135.62249633721,
966,E2721500004201,市立南コミュニティセンター,大阪府寝屋川市下木田町16-50,1,,,1,,,,,1,34.748624625908,135.62158975056,
967,E2721500065201,府立西寝屋川高等学校,大阪府寝屋川市葛原2-19-1,,,,1,,,,,1,34.77131135539,135.60184903324,
968,E2721500006201,市立西コミュニティセンター,大阪府寝屋川市葛原2-7-1,1,,,1,,,,,1,34.770490996315,135.60544198813,
969,E2721500007201,市立エスポアール,大阪府寝屋川市錦町21-3,1,,,1,,,,,1,34.760719349524,135.61497254518,
970,E2721500008201,市立成美小学校,大阪府寝屋川市錦町23-45,1,,,1,,,,,1,34.759866253213,135.61456778162,
971,E2721500009201,公立大学工業高等専門学校,大阪府寝屋川市幸町26-12,1,,,1,,,,,,34.77046325482,135.62936130998,
972,E2721500010201,市立第一中学校,大阪府寝屋川市高宮新町32-1,1,,,1,,,,,1,34.762364469745,135.63166683321,
973,E2721500011201,市立東コミュニティセンター,大阪府寝屋川市高宮新町32-2,1,1,,1,,,,,1,34.761299633716,135.63120978118,
974,E2721500012201,市立西小学校,大阪府寝屋川市高柳3-1-27,1,,,1,,,,,1,34.765359320947,135.61048440479,
975,E2721500013201,市立第九中学校,大阪府寝屋川市高柳4-16-16,1,,,1,,,,,1,34.761287694794,135.60818135789,
976,E2721500014201,市立啓明小学校,大阪府寝屋川市高柳6-3-1,1,,,1,,,,,1,34.759850397806,135.60384887751,
977,E2721500015201,市立国松緑丘小学校,大阪府寝屋川市国松町47-1,1,1,,1,,,,,1,34.770567666265,135.63776257395,
978,E2721500016201,市立和光小学校,大阪府寝屋川市黒原橘町30-1,1,,,1,,,,,1,34.756239652141,135.60276527634,
979,E2721500017201,市立三井小学校,大阪府寝屋川市三井が丘3-7-3,1,1,,1,,,,,1,34.772386001006,135.64285429424,
980,E2721500018201,同志社香里中学校・高等学校,大阪府寝屋川市三井南町15-1,1,,,1,,,,,1,34.772822957338,135.63597183697,
981,E2721500019201,市立第七中学校,大阪府寝屋川市讃良東町1-1,1,,,1,,,,,1,34.748686880075,135.62575373898,
982,E2721500020201,市立北小学校,大阪府寝屋川市寿町57-29,1,,,1,,,,,1,34.782762163451,135.62559469738,
983,E2721500021201,市立中央小学校,大阪府寝屋川市初町1-25,1,,,1,,,,,1,34.763775365105,135.62584249888,
984,E2721500022201,大阪電気通信大学,大阪府寝屋川市初町18-8,1,,,1,,,,,1,34.760324619869,135.62655345661,
985,E2721500023201,市立西北コミュニティセンター,大阪府寝屋川市松屋町20-30,1,,,1,,,,,1,34.78514599534,135.62551963652,
986,E2721500024201,市立西南コミュニティセンター,大阪府寝屋川市上神田1-30-1,1,,,1,,,,,1,34.756564089805,135.61209602711,
987,E2721500025201,市立第五中学校,大阪府寝屋川市上神田2-8-1,1,,,1,,,,,1,34.755317932463,135.60783462436,
988,E2721500026201,府立北かわち皐が丘高等学校,大阪府寝屋川市寝屋北町1-1,1,,,1,,,,,1,34.773679770008,135.6553332551,
989,E2721500027201,市立市民会館,大阪府寝屋川市秦町41-1,1,,,1,,,,,1,34.762884161222,135.63148214575,
990,E2721500086201,トヨタモビリティーパーツ株式会社大阪支社,大阪府寝屋川市仁和寺本町3-1-1,1,,,1,,,,,,34.7690940871188,135.601726111193,
991,E2721500028201,市立第五小学校,大阪府寝屋川市成田西町2-3,1,1,,1,,,,,1,34.77706125555,135.6383114781,
992,E2721500029201,市立東北コミュニティーセンター,大阪府寝屋川市成田町3-3,1,1,,1,,,,,1,34.777308050955,135.63974157959,
993,E2721500030201,市立第六中学校,大阪府寝屋川市成田町3-6,1,1,,1,,,,,1,34.777901657993,135.64113117676,
994,E2721500031201,市立第十中学校,大阪府寝屋川市成田南町20-7,1,1,,1,,,,,1,34.775291296575,135.64531687423,
995,E2721500032201,市立石津小学校,大阪府寝屋川市石津元町8-1,1,,,1,,,,,1,34.776582047968,135.62012692573,
996,E2721500033201,市立地域交流センター（アルカスホール）,大阪府寝屋川市早子町12-21,1,,,1,,,,,1,34.763834860449,135.62298507623,
997,E2721500034201,市立東小学校,大阪府寝屋川市太秦元町2-1,1,1,,1,,,,,1,34.761433117541,135.63384457231,
998,E2721500035203,市立望が丘小学校・中学校,大阪府寝屋川市打上高塚町4-1,1,1,,1,,,,,1,34.755102,135.649839,
999,E2721500035202,市立望が丘地域交流スペース,大阪府寝屋川市打上高塚町4-1,1,1,,1,,,,,1,34.7558181421563,135.649395649944,
1000,E2721500037201,すばる・北斗福祉作業所（療育・自立センター）,大阪府寝屋川市大谷町7-1,1,,,1,,,,,1,34.763137655906,135.65859271775,
1001,E2721500038201,市立池田小学校,大阪府寝屋川市池田2-1-7,1,,,1,,,,,1,34.773474245216,135.61679665288,
1002,E2721500039201,市立桜小学校,大阪府寝屋川市池田新町3-23,1,,,1,,,,,1,34.773169545439,135.61205720066,
1003,E2721500059201,市立池の里市民交流センター,大阪府寝屋川市池田西町24-5,1,,,1,,,,,1,34.771065,135.608582,
1004,E2721500040201,市立第二中学校,大阪府寝屋川市池田西町27-7,1,,,1,,,,,1,34.7695543773,135.61085770478,
1005,E2721500041201,摂南大学,大阪府寝屋川市池田中町17-8,1,,,1,,,,,1,34.780025140421,135.61217217211,
1006,E2721500042201,市立中木田中学校,大阪府寝屋川市中木田町7-1,1,,,1,,,,,1,34.757947338476,135.62173127609,
1007,E2721500043201,市立点野小学校,大阪府寝屋川市点野5-26-1,1,,,1,,,,,1,34.772441272232,135.60028236707,
1008,E2721500044201,市立第八中学校,大阪府寝屋川市点野5-28-1,1,,,1,,,,,1,34.771392175565,135.59995030946,
1009,E2721500045201,市立田井小学校,大阪府寝屋川市田井西町9-1,1,,,1,,,,,1,34.776840395831,135.62580900467,
1010,E2721500046201,市立第三中学校,大阪府寝屋川市田井町17-3,1,,,1,,,,,1,34.779077130687,135.6297107268,
1011,E2721500047201,市立神田小学校,大阪府寝屋川市東神田町27-1,1,,,1,,,,,1,34.75478361912,135.61494678194,
1012,E2721500048201,市立楠根小学校,大阪府寝屋川市楠根南町21-1,1,,,1,,,,,1,34.751526720476,135.63094811712,
1013,E2721500049201,市立友呂岐中学校,大阪府寝屋川市日新町2-25,1,,,1,,,,,1,34.781051836732,135.62401823201,
1014,E2721500085201,株式会社平和堂　アル・プラザ香里園,大阪府寝屋川市日新町5-5,1,,,1,,,,,,34.7831837,135.6232996,
1015,E2721500051201,香里ヌヴェール学院（旧　大阪聖母女学院）,大阪府寝屋川市美井町18-10,1,,,1,,,,,1,34.7810243602,135.63624868542,
1016,E2721500053201,市立木屋小学校,大阪府寝屋川市豊里町19-22,1,,,1,,,,,1,34.784854794826,135.61970286493,
1017,E2721500054201,市立堀溝小学校,大阪府寝屋川市堀溝3-10-8,1,,,1,,,,,1,34.738381042201,135.62564507451,
1018,E2721500055201,府立寝屋川高等学校,大阪府寝屋川市本町15-64,1,,,1,,,,,1,34.764847997232,135.62590701149,
1019,E2721500056201,総合教育研修センター,大阪府寝屋川市明徳1-1-1,1,,,1,,,,,1,34.777018403588,135.64951401582,
1020,E2721500057201,学び館　東障害福祉センター,大阪府寝屋川市明和1-13-23,1,,,1,,,,,1,34.752090982045,135.6425136317,
1021,E2721500058201,市立木田小学校,大阪府寝屋川市木田元宮1-17-1,1,,,1,,,,,1,34.752322721171,135.62132350247,
1022,E2720500004201,岸部第一小学校,大阪府吹田市岸部中2-19-1,,,,1,,,,,1,34.777074780556,135.53603499722,
1023,E2720500009201,大阪学院大学・高等学校,大阪府吹田市岸部南2-6-1,1,,,1,,,,,,34.775427,135.540976,
1024,E2720500010201,第二中学校,大阪府吹田市岸部北1-21-1,,,,1,,,,,1,34.780655263889,135.52710360833,
1025,E2720500011201,岸部第二小学校,大阪府吹田市岸部北4-12-1,1,1,,1,,,,,1,34.782376205556,135.52915452222,
1026,E2720500015201,ＧＬＡ近畿会館,大阪府吹田市金田町28-17,1,,,,,,,,,34.7576091359096,135.506582532907,
1027,E2720500016201,吹田第一小学校,大阪府吹田市元町30-35,1,,,1,,,,,1,34.759931872222,135.52335223889,
1028,E2720500020201,吹田高校,大阪府吹田市原町4-24-14,,,,1,,,,,1,34.777588708333,135.52807825556,
1029,E2720500021201,古江台中学校,大阪府吹田市古江台1-1-1,,,,1,,,,,1,34.808068861111,135.50643025556,
1030,E2720500024201,古江公園,大阪府吹田市古江台5-4,,,,1,,,,,,34.813339952746,135.512752912776,
1031,E2720500025201,古江台小学校,大阪府吹田市古江台5-6-1,,1,,1,,,,,1,34.815502522222,135.50998006944,
1032,E2720500027201,東佐井寺小学校,大阪府吹田市五月が丘西4-1,1,,,1,,,,,1,34.786804186111,135.52268479722,
1033,E2720500029201,佐井寺中学校,大阪府吹田市五月が丘南5-1,,,,1,,,,,1,34.784275930556,135.52625921944,
1034,E2720500030201,吹田東小学校,大阪府吹田市幸町20-1,1,,,1,,,,,1,34.767716191667,135.53575256111,
1035,E2720500031201,第五中学校,大阪府吹田市幸町21-1,1,,,1,,,,,1,34.768302244444,135.53624972778,
1036,E2720500190201,ラ・ヴィベール江坂,大阪府吹田市江の木町2-39,1,,,,,,,,,34.757504,135.495468,
1037,E2720500033201,向洋電気（株）,大阪府吹田市江の木町20-15,1,,,,,,,,,34.7544735662907,135.493060239774,
1038,E2720500034201,豊津第一小学校,大阪府吹田市江坂町1-15-42,1,1,,1,,,,,1,34.761424277778,135.49985610556,
1039,E2720500035201,江坂公園,大阪府吹田市江坂町1-19,,,,1,,,,,,34.75920508742,135.49992559616,
1040,E2720500037201,豊津第二小学校,大阪府吹田市江坂町2-5-1,1,,,1,,,,,1,34.762347144444,135.49497208333,
1041,E2720500038202,江坂大池小学校,大阪府吹田市江坂町3-13-1,1,,,1,,,,,1,34.766371416667,135.49586526944,
1042,E2720500040201,吹田第三小学校,大阪府吹田市高城町18-39,1,,,1,,,,,1,34.762382561111,135.53043870278,
1043,E2720500042201,高野公園,大阪府吹田市高野台1-4,,,,1,,,,,,34.7941177708765,135.514979238591,
1044,E2720500044201,高野台小学校,大阪府吹田市高野台2-16-1,,,,1,,,,,1,34.795865566667,135.51566725556,
1045,E2720500045201,千里高校,大阪府吹田市高野台2-17-1,,,,1,,,,,1,34.800012880556,135.51492391944,
1046,E2720500046201,高野台中学校,大阪府吹田市高野台4-5-1,,,,1,,,,,1,34.791974661111,135.51932448889,
1047,E2720500047201,佐井寺小学校,大阪府吹田市佐井寺3-3-1,,1,,1,,,,,1,34.786179452778,135.51690365556,
1048,E2720500050201,佐井寺南が丘公園,大阪府吹田市佐井寺南が丘14,,,,1,,,,,,34.7793409279589,135.518546624555,
1049,E2720500053201,佐竹公園,大阪府吹田市佐竹台3-4,,,,1,,,,,,34.7894670002484,135.514278209414,
1050,E2720500054201,ねむのき公園,大阪府吹田市佐竹台4-10,,,,1,,,,,,34.7871400709487,135.516976022015,
1051,E2720500055201,佐竹台小学校,大阪府吹田市佐竹台4-12-1,,1,,1,,,,,1,34.787921730556,135.51522406389,
1052,E2720500059201,山手小学校,大阪府吹田市山手町2-15-43,1,1,,1,,,,,1,34.766999938889,135.51118387222,
1053,E2720500060201,関西大学・第一中学校・第一高等学校,大阪府吹田市山手町3-3,,,,1,,,,,,34.7702181681928,135.508598832168,
1054,E2720500061201,山田中学校,大阪府吹田市山田市場15-1,1,,,1,,,,,1,34.792621505556,135.538820025,
1055,E2720500065201,山田第三小学校,大阪府吹田市山田西1-4-1,,1,,1,,,,,1,34.792931927778,135.53178533889,
1056,E2720500066201,山田第五小学校,大阪府吹田市山田西1-6-1,1,1,,1,,,,,,34.791693219444,135.53418541667,
1057,E2720500069201,西山田小学校,大阪府吹田市山田西2-10-1,,1,,1,,,,,1,34.795557372222,135.524466225,
1058,E2720500070201,西山田中学校,大阪府吹田市山田西2-11-1,,,,1,,,,,1,34.796532802778,135.52302466667,
1059,E2720500071201,山田スポーツグラウンド,大阪府吹田市山田西2-17-1,,,,1,,,,,,34.7989025480239,135.524682845527,
1060,E2720500076201,山田第一小学校,大阪府吹田市山田東2-33-2,1,1,,1,,,,,1,34.799821669444,135.52868440278,
1061,E2720500079201,山田高校,大阪府吹田市山田東3-28-1,,,,1,,,,,1,34.801288175,135.52884214444,
1062,E2720500080201,山田東中学校,大阪府吹田市山田東4-33-1,,,,1,,,,,1,34.803101297222,135.52777165,
1063,E2720500084201,武田薬品工業㈱吹田寮（運動場）,大阪府吹田市山田南48,,,,1,,,,,,34.789170217626,135.534065145433,
1064,E2720500085201,北山田小学校,大阪府吹田市山田北1-1,,,,1,,,,,1,34.808207333333,135.52082408056,
1065,E2720500090201,寿町藤原ビル,大阪府吹田市寿町2-26-9,1,,,,,,,,,34.7532692564476,135.518733090985,
1066,E2720500095201,千里新田小学校,大阪府吹田市春日4-10-1,,1,,1,,,,,1,34.784643563889,135.50001125278,
1067,E2720500096201,吹田市立勤労者会館（アスワーク吹田）,大阪府吹田市昭和町12-1,1,,,,,,,,1,34.762428038889,135.52724097222,
1068,E2720500101201,豊津中学校,大阪府吹田市垂水町3-32-50,1,,,1,,,,,1,34.75831555,135.50413688056,
1069,E2720500103201,青山台小学校,大阪府吹田市青山台2-5-1,,,,1,,,,,1,34.821988966667,135.50407366944,
1070,E2720500104201,青山台中学校,大阪府吹田市青山台4-2-1,,,,1,,,,,1,34.822446702778,135.50843058611,
1071,E2720500105201,青山公園,大阪府吹田市青山台4-4,,,,1,,,,,,34.8240105193924,135.504886413264,
1072,E2720500106201,千里丘中学校,大阪府吹田市青葉丘南15-1,,,,1,,,,,1,34.803676041667,135.54808567222,
1073,E2720500107201,東山田小学校,大阪府吹田市青葉丘南15-10,,,,1,,,,,1,34.805332575,135.548926925,
1074,E2720500108201,吹田東高校,大阪府吹田市青葉丘南16-1,,,,1,,,,,1,34.805216952778,135.54718210556,
1075,E2720500109201,山田第二小学校,大阪府吹田市千里丘下19-1,1,1,,1,,,,,1,34.793520558333,135.55024567222,
1076,E2720500113201,南山田小学校,大阪府吹田市千里丘西9-1,,1,,1,,,,,1,34.794366058333,135.54343521111,
1077,E2722400001201,スーパービバホーム吹田千里丘店,大阪府吹田市千里丘北1-2,1,,,1,,1,1,,,34.800750644537,135.54270674471,
1078,E2720500114201,千里丘北小学校,大阪府吹田市千里丘北1-30,,,,1,,,,,1,34.799928,135.544885,
1079,E2720500117201,千里第二小学校,大阪府吹田市千里山松が丘25-1,,1,,1,,,,,1,34.779043488889,135.50928610278,
1080,E2720500121201,千里第三小学校,大阪府吹田市千里山西2-13-1,,1,,1,,,,,1,34.772643258333,135.50003118333,
1081,E2720500122201,第一中学校,大阪府吹田市千里山西2-2-1,1,,,1,,,,,1,34.772612463889,135.50220765556,
1082,E2720500130201,済生会吹田病院,大阪府吹田市川園町1-2,1,,,,,,,,,34.7615562902459,135.534705303643,
1083,E2720500131201,文化会館（メイシアター）,大阪府吹田市泉町2-29-1,1,,,,,,,,1,34.759737833333,135.51530830278,
1084,E2720500132201,吹田第二小学校,大阪府吹田市泉町3-15-18,1,,,1,,,,,1,34.758690638889,135.51084153056,
1085,E2720500134201,リーサイド豊津,大阪府吹田市泉町5-11-12,1,,,,,,,,,34.7636918700685,135.511760673949,
1086,E2720500135201,竹見台中学校,大阪府吹田市竹見台1-3-1,,,,1,,,,,1,34.795656561111,135.50408683333,
1087,E2720500136201,千里たけみ小学校,大阪府吹田市竹見台3-3-1,,,,1,,,,,1,34.795605705556,135.50171785556,
1088,E2720500138201,竹見公園,大阪府吹田市竹見台4-3,,,,1,,,,,,34.7963418671826,135.498601708923,
1089,E2720500139201,片山中学校,大阪府吹田市竹谷町35-1,,,,1,,,,,1,34.778296816667,135.52102919444,
1090,E2720500140201,総合運動場,大阪府吹田市竹谷町37-1,,,,1,,,,,1,34.779763338889,135.52260709167,
1091,E2720500141201,第三中学校,大阪府吹田市中の島町3-51,1,,,1,,,,,1,34.752065066667,135.52276159167,
1092,E2720500143201,片山小学校,大阪府吹田市朝日が丘町16-1,,1,,1,,,,,1,34.769918616667,135.51880283333,
1093,E2720500145201,津雲公園,大阪府吹田市津雲台3-13,,,,1,,,,,,34.8012638003765,135.511290129297,
1094,E2720500147201,津雲台小学校,大阪府吹田市津雲台4-7-1,,1,,1,,,,,1,34.802393666667,135.50968378056,
1095,E2720500149201,桃山台小学校,大阪府吹田市桃山台1-5-1,,,,1,,,,,1,34.791856694444,135.50338834444,
1096,E2720500150201,桃山公園,大阪府吹田市桃山台2-10,,,,1,,,,,,34.7921060035258,135.498157384532,
1097,E2720500152201,南千里中学校,大阪府吹田市桃山台4-2-1,1,,,1,,,,,1,34.787607402778,135.50034311667,
1098,E2720500153201,桃山台スポーツグラウンド,大阪府吹田市桃山台5-5-1,,,,1,,,,,,34.7906318208924,135.496379538078,
1099,E2720500156201,藤白台小学校,大阪府吹田市藤白台3-3-1,,1,,1,,,,,1,34.819669627778,135.51549980556,
1100,E2720500157201,藤白公園,大阪府吹田市藤白台3-4,,,,1,,,,,,34.8192319272986,135.51426221509,
1101,E2720500159201,千里金蘭大学・短期大学部・高等学校・中学校,大阪府吹田市藤白台5-25-1,,,,1,,,,,,34.826356209156,135.514841782186,
1102,E2720500161201,北千里高校,大阪府吹田市藤白台5-6-1,,,,1,,,,,1,34.828650641667,135.50688282222,
1103,E2720500163201,内本町コミュニティーセンター,大阪府吹田市内本町2-2-12,1,,,,,,,,1,34.758338797222,135.52583451111,
1104,E2720500191201,ライフケア吹田,大阪府吹田市内本町3-25-16,1,,,,,,,,,34.754471,135.523392,
1105,E2720500165201,南吹田公園,大阪府吹田市南金田1-12,,,,1,,,,,,34.7540194865281,135.506941025232,
1106,E2720500166201,ＧＬＡ近畿会館別館,大阪府吹田市南金田2-1-31,1,,,,,,,,,34.7571127562361,135.506249307066,
1107,E2720500167201,ビケンテクノ本社ビル,大阪府吹田市南金田2-12-1,1,,,,,,,,,34.7552933496844,135.505467725104,
1108,E2720500170201,ＮＥＳＣＯ総合ビル,大阪府吹田市南吹田1-5-25,1,,,,,,,,,34.7514046368649,135.511815840092,
1109,E2720500171201,ダスキン大阪中央工場,大阪府吹田市南吹田4-19-5,1,,,,,,,,,34.7473840868728,135.503590312375,
1110,E2720500174201,吹田南小学校,大阪府吹田市南吹田5-12-1,1,,,1,,,,,1,34.75216265,135.50390061944,
1111,E2720500173201,アドリーム江坂,大阪府吹田市南吹田5-37-35,1,,,,,,,,,34.7519018539359,135.497717065612,
1112,E2720500176201,吹田第六小学校,大阪府吹田市南清和園町43-1,1,,,1,,,,,1,34.753665216667,135.51477901389,
1113,E2720500178201,千里第一小学校,大阪府吹田市片山町4-32-10,,,,1,,,,,1,34.769390225,135.52658430278,
1114,E2720500179201,第六中学校,大阪府吹田市穂波町16-1,1,,,1,,,,,1,34.755596813889,135.50996195,
1115,E2720500180201,シティハウス吹田穂波公園,大阪府吹田市穂波町7-30,1,,,,,,,,,34.7563994612558,135.510979760783,
1116,E2720500181201,大阪府立吹田支援学校,大阪府吹田市芳野町13-120,1,,,,,,,,,34.7559806938145,135.488493701027,
1117,E2720500182201,江坂スクエアビル,大阪府吹田市芳野町14-33,1,,,,,,,,,34.7523534546914,135.491145427996,
1118,E2720500183201,ダスキンスクール,大阪府吹田市芳野町5-32,1,,,,,,,,,34.7568986527417,135.488108033398,
1119,E2720500185201,ダスキンピア,大阪府吹田市豊津町1-33,1,,,,,,,,,34.7603853551552,135.49637394814,
1120,E2720500184201,トップ産業ビル,大阪府吹田市豊津町12-43,1,,,,,,,,,34.7591465684184,135.494751464506,
1121,E2720500187201,豊津西中学校,大阪府吹田市豊津町6-1,1,,,1,,,,,1,34.760432355556,135.494513825,
1122,E2722400002201,味生公民館,大阪府摂津市一津屋1-16-13,,,,1,,1,,,1,34.76146877,135.5676449,
1123,E2722400003201,市営一津屋第２団地,大阪府摂津市一津屋1-34-1,1,,,,,,1,,,34.76143141,135.5666985,
1124,E2722400004201,府営摂津味生住宅,大阪府摂津市一津屋1-38-1,1,,,,,,1,,,34.75951169,135.5665557,(住所：大阪府摂津市一津屋1-38-1～2)
1125,E2722400005201,味生小学校,大阪府摂津市一津屋2-19-1,1,,,1,,1,1,,1,34.7600908,135.5649292,
1126,E2722400006201,市営一津屋第１団地,大阪府摂津市一津屋2-26-2,1,,,,,,1,,,34.7621145,135.5656793,
1127,E2722400007201,大阪漁具株式会社,大阪府摂津市一津屋3-13-1,1,,,,,,1,,,34.76580851,135.566892,
1128,E2722400008201,第三中学校,大阪府摂津市学園町1-3-1,1,,,1,,1,1,,1,34.78498346,135.5590044,
1129,E2722400009201,大阪府立摂津高等学校,大阪府摂津市学園町1-5-1,1,,,1,,,1,,1,34.78734797,135.5602616,
1130,E2722400010201,三宅柳田小学校,大阪府摂津市学園町2-9-1,1,,,1,,1,1,,1,34.7841749,135.5602615,
1131,E2722400011201,三星ダイヤモンド工業株式会社　本社　エントランスロビー（１階）、食堂（４階）,大阪府摂津市香露園32-12,1,,,,,,1,,,34.7850244395,135.556491371,
1132,E2722400012201,摂津市民文化ホール,大阪府摂津市香露園32-19,1,,,,,,1,,,34.785676668521,135.55634133786,
1133,E2722400013201,教育センター,大阪府摂津市香露園34-1,1,,,,,,1,,,34.784609716012,135.55728559424,
1134,E2722400016201,大阪職業訓練支援センターＪ棟,大阪府摂津市三島1-2-1,1,,,,,,1,,,34.77504142,135.5626176,
1135,E2722400017201,味舌小学校,大阪府摂津市三島2-13-38,1,,,1,,1,1,,1,34.77653154,135.556285,
1136,E2722400018201,市営三島住宅,大阪府摂津市三島2-5-2,1,,,,,,1,,,34.77840342,135.5587485,
1137,E2722400019201,摂津小学校,大阪府摂津市三島3-14-60,1,,,1,,1,1,,1,34.78141825,135.5557756,
1138,E2722400020201,学校法人浪工学園星翔高等学校知新館,大阪府摂津市三島3-5-36,1,,,1,,,1,,1,34.779058631779,135.55478883707,
1139,E2722400021201,大阪人間科学大学Ａ、Ｂ号館,大阪府摂津市庄屋1-12-13,1,,,,,,1,,,34.77964988,135.5474109,
1140,E2722400022201,太中浄水場,大阪府摂津市昭和園6-11,1,,,,,,1,,,34.789711692523,135.55818314058,
1141,E2722400023201,株式会社　かんでんエンジニアリング,大阪府摂津市新在家2-24-1,1,,,,,,1,,,34.769079,135.568241,
1142,E2722400024201,味舌体育館,大阪府摂津市正雀1-1-6,1,,,,,,1,,1,34.778540235696,135.55161669111,
1143,E2722400025201,薫英学園,大阪府摂津市正雀1-4-1,1,,,,,,1,,,34.778121292771,135.55073000499,
1144,E2722400026201,認定こども園　正雀愛育園　３階、屋上,大阪府摂津市正雀4-12-23,1,,,,,,1,,,34.77270622563,135.5550731019,
1145,E2722400027201,正雀体育館,大阪府摂津市正雀4-2-3,,,,1,,1,,,1,34.77444015,135.5557616,
1146,E2722400028201,市民図書館,大阪府摂津市正雀4-9-25,1,,,1,,1,1,,1,34.77239549,135.5531737,
1147,E2722400029201,安威川公民館,大阪府摂津市正雀4-9-28,1,,,1,,1,1,,1,34.77251888,135.5533829,
1148,E2722400030201,正雀市民ルーム,大阪府摂津市正雀本町1-11-1,1,,,1,,,1,,1,34.775248139,135.5483366479,
1149,E2722400031201,府営摂津正雀住宅,大阪府摂津市正雀本町1-3-1,1,,,,,,1,,,34.77458624,135.5481283,(住所：大阪府摂津市正雀本町1-3-1～7)
1150,E2722400032201,千里丘小学校,大阪府摂津市千里丘3-15-4,,,,1,,1,,,1,34.78912655,135.5442873,
1151,E2722400033201,千里丘公民館,大阪府摂津市千里丘3-9-47,,,,1,,1,,,1,34.78753712,135.547166,
1152,E2722400034201,芦森工業　大阪工場,大阪府摂津市千里丘7-11-61,1,,,1,,,1,,,34.78454508,135.5399557,
1153,E2722400072201,ニプロ株式会社（１階ホール１）,大阪府摂津市千里丘新町3-26,1,,,,,,1,,,34.781461,135.542295,
1154,E2722400035201,子育て総合支援センター遊戯室（旧三宅スポーツセンター）,大阪府摂津市千里丘東1-17-46,,,,1,,1,,,1,34.79274529,135.5549292,
1155,E2722400036201,小規模特養摂津いやし園,大阪府摂津市鳥飼下1-13-15,1,,,,,,1,,,34.77614063,135.5877798,
1156,E2722400037201,特別養護老人ホーム摂津いやし園,大阪府摂津市鳥飼下1-13-7,1,,,,,,1,,1,34.77663412,135.5876027,
1157,E2722400038201,鳥飼小学校,大阪府摂津市鳥飼下1-7-1,1,,,1,,1,1,,1,34.77757674,135.5889976,
1158,E2722400039201,摂津支援学校・とりかい高等支援学校,大阪府摂津市鳥飼上1-1-15,1,,,1,,,1,,,34.785514027721,135.60065491319,
1159,E2722400041201,鳥飼東小学校,大阪府摂津市鳥飼上3-4-51,1,,,1,,1,1,,1,34.78639729,135.5929637,
1160,E2722400043201,第五中学校,大阪府摂津市鳥飼新町1-10-1,1,,,1,,1,1,,1,34.78622106,135.5874437,
1161,E2722400044201,府営摂津鳥飼西住宅,大阪府摂津市鳥飼西2-35-1,1,,,,,,1,,,34.7704661,135.5772968,(住所：大阪府摂津市鳥飼西2-35-1～4)
